[
  {
    "name": "Pharmacie la Cité",
    "address": "Pharmacie la Cité, Kenitra, Morocco",
    "city": "Kenitra",
    "phone": "05 37 37 90 71",
    "page_number": 1,
    "source_url": "https://www.annuaire-gratuit.ma/recherche/pharmacies-ville-kénitra-pg1",
    "latitude": 34.2684897,
    "longitude": -6.593381399999999,
    "geocoded": true,
    "rating": 3.5,
    "reviewCount": 20
  },
  {
    "name": "Pharmacie Balsam",
    "address": "Pharmacie Balsam, Kenitra, Morocco",
    "city": "Kenitra",
    "phone": "05 37 39 17 13",
    "page_number": 1,
    "source_url": "https://www.annuaire-gratuit.ma/recherche/pharmacies-ville-kénitra-pg1",
    "latitude": 34.2510495,
    "longitude": -6.5562209,
    "geocoded": true,
    "rating": 4.1,
    "reviewCount": 26
  },
  {
    "name": "Pharmacie Du Marché Central",
    "address": "Pharmacie Du Marché Central, Kenitra, Morocco",
    "city": "Kenitra",
    "phone": "05 37 37 10 54",
    "page_number": 1,
    "source_url": "https://www.annuaire-gratuit.ma/recherche/pharmacies-ville-kénitra-pg1",
    "latitude": 34.2635122,
    "longitude": -6.5844355,
    "geocoded": true,
    "rating": 4.2,
    "reviewCount": 47
  },
  {
    "name": "Pharmacie Fadlallah",
    "address": "Pharmacie Fadlallah, Kenitra, Morocco",
    "city": "Kenitra",
    "phone": "05 37 38 33 28",
    "page_number": 1,
    "source_url": "https://www.annuaire-gratuit.ma/recherche/pharmacies-ville-kénitra-pg1",
    "latitude": 34.2620434,
    "longitude": -6.5574981,
    "geocoded": true,
    "rating": 5.0,
    "reviewCount": 30
  },
  {
    "name": "Pharmacie Masjid Arrahma",
    "address": "Pharmacie Masjid Arrahma, Kenitra, Morocco",
    "city": "Kenitra",
    "phone": "05 37 35 57 00",
    "page_number": 1,
    "source_url": "https://www.annuaire-gratuit.ma/recherche/pharmacies-ville-kénitra-pg1",
    "latitude": 34.2580944,
    "longitude": -6.619419799999999,
    "geocoded": true,
    "rating": 4.1,
    "reviewCount": 20
  },
  {
    "name": "Pharmacie Jamaâ M'chich",
    "address": "Pharmacie Jamaâ M'chich, Kenitra, Morocco",
    "city": "Kenitra",
    "phone": "06 51 83 77 69",
    "page_number": 1,
    "source_url": "https://www.annuaire-gratuit.ma/recherche/pharmacies-ville-kénitra-pg1",
    "latitude": 34.2450361,
    "longitude": -6.5985004,
    "geocoded": true,
    "rating": 4.4,
    "reviewCount": 13
  },
  {
    "name": "Pharmacie Al Oumouma",
    "address": "Pharmacie Al Oumouma, Kenitra, Morocco",
    "city": "Kenitra",
    "phone": "05 37 38 35 32",
    "page_number": 1,
    "source_url": "https://www.annuaire-gratuit.ma/recherche/pharmacies-ville-kénitra-pg1",
    "latitude": 34.2402561,
    "longitude": -6.556906000000001,
    "geocoded": true,
    "rating": 4.8,
    "reviewCount": 8
  },
  {
    "name": "Pharmacie Loudiyi",
    "address": "Pharmacie Loudiyi, Kenitra, Morocco",
    "city": "Kenitra",
    "phone": "05 37 39 14 13",
    "page_number": 1,
    "source_url": "https://www.annuaire-gratuit.ma/recherche/pharmacies-ville-kénitra-pg1",
    "latitude": 34.26130029999999,
    "longitude": -6.5502315,
    "geocoded": true,
    "rating": 5.0,
    "reviewCount": 48
  },
  {
    "name": "Pharmacie Alhamdolilah",
    "address": "Pharmacie Alhamdolilah, Kenitra, Morocco",
    "city": "Kenitra",
    "phone": "05 37 39 18 77",
    "page_number": 1,
    "source_url": "https://www.annuaire-gratuit.ma/recherche/pharmacies-ville-kénitra-pg1",
    "latitude": 34.2523509,
    "longitude": -6.5250888,
    "geocoded": true,
    "rating": 4.6,
    "reviewCount": 37
  },
  {
    "name": "Pharmacie Ammour",
    "address": "Pharmacie Ammour, Kenitra, Morocco",
    "city": "Kenitra",
    "phone": "",
    "page_number": 1,
    "source_url": "https://www.annuaire-gratuit.ma/recherche/pharmacies-ville-kénitra-pg1",
    "latitude": 34.2452129,
    "longitude": -6.539546199999999,
    "geocoded": true,
    "rating": 4.1,
    "reviewCount": 32
  },
  {
    "name": "Pharmacie Elhouria",
    "address": "Pharmacie Elhouria, Kenitra, Morocco",
    "city": "Kenitra",
    "phone": "05 37 37 35 90",
    "page_number": 1,
    "source_url": "https://www.annuaire-gratuit.ma/recherche/pharmacies-ville-kénitra-pg1",
    "latitude": 34.2600693,
    "longitude": -6.564646199999999,
    "geocoded": true,
    "rating": 4.1,
    "reviewCount": 36
  },
  {
    "name": "Pharmacie les Iris",
    "address": "Pharmacie les Iris, Kenitra, Morocco",
    "city": "Kenitra",
    "phone": "05 37 35 17 18",
    "page_number": 1,
    "source_url": "https://www.annuaire-gratuit.ma/recherche/pharmacies-ville-kénitra-pg1",
    "latitude": 34.2723002,
    "longitude": -6.6137427,
    "geocoded": true,
    "rating": 4.7,
    "reviewCount": 43
  },
  {
    "name": "Pharmacie ElAmal",
    "address": "Pharmacie ElAmal, Kenitra, Morocco",
    "city": "Kenitra",
    "phone": "05 37 38 04 19",
    "page_number": 1,
    "source_url": "https://www.annuaire-gratuit.ma/recherche/pharmacies-ville-kénitra-pg1",
    "latitude": 34.2495039,
    "longitude": -6.550052399999999,
    "geocoded": true,
    "rating": 4.5,
    "reviewCount": 7
  },
  {
    "name": "Pharmacie Saknia",
    "address": "Pharmacie Saknia, Kenitra, Morocco",
    "city": "Kenitra",
    "phone": "05 37 38 00 34",
    "page_number": 1,
    "source_url": "https://www.annuaire-gratuit.ma/recherche/pharmacies-ville-kénitra-pg1",
    "latitude": 34.2458279,
    "longitude": -6.5475186,
    "geocoded": true,
    "rating": 4.5,
    "reviewCount": 7
  },
  {
    "name": "Pharmacie Laila Chiadmi",
    "address": "Pharmacie Laila Chiadmi, Kenitra, Morocco",
    "city": "Kenitra",
    "phone": "05 37 39 22 83",
    "page_number": 1,
    "source_url": "https://www.annuaire-gratuit.ma/recherche/pharmacies-ville-kénitra-pg1",
    "latitude": 34.2418872,
    "longitude": -6.537117500000001,
    "geocoded": true,
    "rating": 4.8,
    "reviewCount": 6
  },
  {
    "name": "Pharmacie Al Manar",
    "address": "Pharmacie Al Manar, Kenitra, Morocco",
    "city": "Kenitra",
    "phone": "05 37 39 50 33",
    "page_number": 1,
    "source_url": "https://www.annuaire-gratuit.ma/recherche/pharmacies-ville-kénitra-pg1",
    "latitude": 34.2443439,
    "longitude": -6.6169077,
    "geocoded": true,
    "rating": 4.5,
    "reviewCount": 22
  },
  {
    "name": "Pharmacie Al Ghofrane",
    "address": "Pharmacie Al Ghofrane, Kenitra, Morocco",
    "city": "Kenitra",
    "phone": "06 30 73 43 70",
    "page_number": 1,
    "source_url": "https://www.annuaire-gratuit.ma/recherche/pharmacies-ville-kénitra-pg1",
    "latitude": 34.2331786,
    "longitude": -6.546418999999999,
    "geocoded": true,
    "rating": 4.7,
    "reviewCount": 25
  },
  {
    "name": "Pharmacie Alhamdolilah",
    "address": "Pharmacie Alhamdolilah, Kenitra, Morocco",
    "city": "Kenitra",
    "phone": "05 37 39 18 77",
    "page_number": 1,
    "source_url": "https://www.annuaire-gratuit.ma/recherche/pharmacies-ville-kénitra-pg1",
    "latitude": 34.2523509,
    "longitude": -6.5250888,
    "geocoded": true,
    "rating": 4.3,
    "reviewCount": 31
  },
  {
    "name": "Pharmacie Al Yossr Alliance",
    "address": "Pharmacie Al Yossr Alliance, Kenitra, Morocco",
    "city": "Kenitra",
    "phone": "05 37 33 81 94",
    "page_number": 2,
    "source_url": "https://www.annuaire-gratuit.ma/recherche/pharmacies-ville-kénitra-pg2",
    "latitude": 34.2439669,
    "longitude": -6.649275599999999,
    "geocoded": true,
    "rating": 4.6,
    "reviewCount": 40
  },
  {
    "name": "Pharmacie Sidi Larbi Boujemaâ",
    "address": "Pharmacie Sidi Larbi Boujemaâ, Kenitra, Morocco",
    "city": "Kenitra",
    "phone": "05 37 36 48 98",
    "page_number": 2,
    "source_url": "https://www.annuaire-gratuit.ma/recherche/pharmacies-ville-kénitra-pg2",
    "latitude": 34.2631714,
    "longitude": -6.5741429,
    "geocoded": true,
    "rating": 4.3,
    "reviewCount": 30
  },
  {
    "name": "Pharmacie El Mssalla",
    "address": "Pharmacie El Mssalla, Kenitra, Morocco",
    "city": "Kenitra",
    "phone": "06 61 09 71 24",
    "page_number": 2,
    "source_url": "https://www.annuaire-gratuit.ma/recherche/pharmacies-ville-kénitra-pg2",
    "latitude": 34.2518397,
    "longitude": -6.5632,
    "geocoded": true,
    "rating": 4.6,
    "reviewCount": 3
  },
  {
    "name": "Pharmacie Chark Al Madina",
    "address": "Pharmacie Chark Al Madina, Kenitra, Morocco",
    "city": "Kenitra",
    "phone": "06 08 55 61 41",
    "page_number": 2,
    "source_url": "https://www.annuaire-gratuit.ma/recherche/pharmacies-ville-kénitra-pg2",
    "latitude": 34.2253202,
    "longitude": -6.536640900000001,
    "geocoded": true,
    "rating": 3.7,
    "reviewCount": 1
  },
  {
    "name": "Pharmacie Nour Sale Ex Himmich",
    "address": "Pharmacie Nour Sale Ex Himmich, Sale, Morocco",
    "city": "Sale",
    "phone": "05 37 88 07 17",
    "page_number": 2,
    "source_url": "https://www.annuaire-gratuit.ma/recherche/pharmacies-ville-kénitra-pg2",
    "latitude": 34.051503,
    "longitude": -6.812950799999999,
    "geocoded": true,
    "rating": 4.9,
    "reviewCount": 15
  },
  {
    "name": "Pharmacie Farazdaq",
    "address": "Pharmacie Farazdaq, Kenitra, Morocco",
    "city": "Kenitra",
    "phone": "",
    "page_number": 2,
    "source_url": "https://www.annuaire-gratuit.ma/recherche/pharmacies-ville-kénitra-pg2",
    "latitude": 34.2566894,
    "longitude": -6.6222064,
    "geocoded": true,
    "rating": 3.8,
    "reviewCount": 37
  },
  {
    "name": "Pharmacie El Bahaa",
    "address": "Pharmacie El Bahaa, Kenitra, Morocco",
    "city": "Kenitra",
    "phone": "06 11 75 98 72",
    "page_number": 2,
    "source_url": "https://www.annuaire-gratuit.ma/recherche/pharmacies-ville-kénitra-pg2",
    "latitude": 34.2351448,
    "longitude": -6.6190959,
    "geocoded": true,
    "rating": 4.2,
    "reviewCount": 23
  },
  {
    "name": "Pharmacie Elhouria",
    "address": "Pharmacie Elhouria, Kenitra, Morocco",
    "city": "Kenitra",
    "phone": "05 37 37 35 90",
    "page_number": 2,
    "source_url": "https://www.annuaire-gratuit.ma/recherche/pharmacies-ville-kénitra-pg2",
    "latitude": 34.2600693,
    "longitude": -6.564646199999999,
    "geocoded": true,
    "rating": 4.0,
    "reviewCount": 5
  },
  {
    "name": "Pharmacie Omnia",
    "address": "Pharmacie Omnia, Kenitra, Morocco",
    "city": "Kenitra",
    "phone": "05 37 31 54 35",
    "page_number": 2,
    "source_url": "https://www.annuaire-gratuit.ma/recherche/pharmacies-ville-kénitra-pg2",
    "latitude": 34.2281203,
    "longitude": -6.550136800000001,
    "geocoded": true,
    "rating": 5.0,
    "reviewCount": 32
  },
  {
    "name": "Pharmacie Laila",
    "address": "Pharmacie Laila, Kenitra, Morocco",
    "city": "Kenitra",
    "phone": "05 37 35 37 13",
    "page_number": 2,
    "source_url": "https://www.annuaire-gratuit.ma/recherche/pharmacies-ville-kénitra-pg2",
    "latitude": 34.2506361,
    "longitude": -6.623107,
    "geocoded": true,
    "rating": 4.2,
    "reviewCount": 16
  },
  {
    "name": "Pharmacie Al Manal",
    "address": "Pharmacie Al Manal, Kenitra, Morocco",
    "city": "Kenitra",
    "phone": "05 37 35 09 21",
    "page_number": 2,
    "source_url": "https://www.annuaire-gratuit.ma/recherche/pharmacies-ville-kénitra-pg2",
    "latitude": 34.2443439,
    "longitude": -6.6169077,
    "geocoded": true,
    "rating": 4.1,
    "reviewCount": 38
  },
  {
    "name": "Pharmacie de la Mosquée",
    "address": "Pharmacie de la Mosquée, Kenitra, Morocco",
    "city": "Kenitra",
    "phone": "05 37 38 07 05",
    "page_number": 2,
    "source_url": "https://www.annuaire-gratuit.ma/recherche/pharmacies-ville-kénitra-pg2",
    "latitude": 34.2515784,
    "longitude": -6.5467645,
    "geocoded": true,
    "rating": 3.8,
    "reviewCount": 4
  },
  {
    "name": "Pharmacie Badr",
    "address": "Pharmacie Badr, Kenitra, Morocco",
    "city": "Kenitra",
    "phone": "05 37 38 01 41",
    "page_number": 2,
    "source_url": "https://www.annuaire-gratuit.ma/recherche/pharmacies-ville-kénitra-pg2",
    "latitude": 34.2486767,
    "longitude": -6.5551154,
    "geocoded": true,
    "rating": 4.6,
    "reviewCount": 49
  },
  {
    "name": "Pharmacie Al Firdaous",
    "address": "Pharmacie Al Firdaous, Sale, Morocco",
    "city": "Sale",
    "phone": "05 37 87 88 19",
    "page_number": 2,
    "source_url": "https://www.annuaire-gratuit.ma/recherche/pharmacies-ville-kénitra-pg2",
    "latitude": 34.2619968,
    "longitude": -6.5788693,
    "geocoded": true,
    "rating": 4.6,
    "reviewCount": 7
  },
  {
    "name": "Pharmacie Shems",
    "address": "Pharmacie Shems, Kenitra, Morocco",
    "city": "Kenitra",
    "phone": "05 37 35 18 16",
    "page_number": 2,
    "source_url": "https://www.annuaire-gratuit.ma/recherche/pharmacies-ville-kénitra-pg2",
    "latitude": 34.2530399,
    "longitude": -6.6194979,
    "geocoded": true,
    "rating": 4.6,
    "reviewCount": 1
  },
  {
    "name": "Pharmacie Tiddas",
    "address": "Pharmacie Tiddas, Kenitra, Morocco",
    "city": "Kenitra",
    "phone": "05 37 35 09 21",
    "page_number": 2,
    "source_url": "https://www.annuaire-gratuit.ma/recherche/pharmacies-ville-kénitra-pg2",
    "latitude": 34.2598688,
    "longitude": -6.6121306,
    "geocoded": true,
    "rating": 4.8,
    "reviewCount": 25
  },
  {
    "name": "Pharmacie Assafae",
    "address": "Pharmacie Assafae, Kenitra, Morocco",
    "city": "Kenitra",
    "phone": "05 37 39 10 44",
    "page_number": 2,
    "source_url": "https://www.annuaire-gratuit.ma/recherche/pharmacies-ville-kénitra-pg2",
    "latitude": 34.2442824,
    "longitude": -6.5450517,
    "geocoded": true,
    "rating": 3.8,
    "reviewCount": 50
  },
  {
    "name": "Pharmacie Yaacoub",
    "address": "Pharmacie Yaacoub, Kenitra, Morocco",
    "city": "Kenitra",
    "phone": "05 37 39 17 94",
    "page_number": 2,
    "source_url": "https://www.annuaire-gratuit.ma/recherche/pharmacies-ville-kénitra-pg2",
    "latitude": 34.2461537,
    "longitude": -6.5418898,
    "geocoded": true,
    "rating": 4.7,
    "reviewCount": 19
  },
  {
    "name": "La Grande Pharmacie",
    "address": "La Grande Pharmacie, Kenitra, Morocco",
    "city": "Kenitra",
    "phone": "05 37 37 10 46",
    "page_number": 2,
    "source_url": "https://www.annuaire-gratuit.ma/recherche/pharmacies-ville-kénitra-pg2",
    "latitude": 34.2608282,
    "longitude": -6.5853727,
    "geocoded": true,
    "rating": 4.2,
    "reviewCount": 3
  },
  {
    "name": "Pharmacie Elmassira",
    "address": "Pharmacie Elmassira, Kenitra, Morocco",
    "city": "Kenitra",
    "phone": "05 37 38 06 27",
    "page_number": 2,
    "source_url": "https://www.annuaire-gratuit.ma/recherche/pharmacies-ville-kénitra-pg2",
    "latitude": 34.2518899,
    "longitude": -6.550200299999999,
    "geocoded": true,
    "rating": 4.1,
    "reviewCount": 47
  },
  {
    "name": "Pharmacie Bella",
    "address": "Pharmacie Bella, Kenitra, Morocco",
    "city": "Kenitra",
    "phone": "05 37 39 56 39",
    "page_number": 3,
    "source_url": "https://www.annuaire-gratuit.ma/recherche/pharmacies-ville-kénitra-pg3",
    "latitude": 34.2411625,
    "longitude": -6.570194499999999,
    "geocoded": true,
    "rating": 4.3,
    "reviewCount": 47
  },
  {
    "name": "Pharmacie Saoumaa",
    "address": "Pharmacie Saoumaa, Kenitra, Morocco",
    "city": "Kenitra",
    "phone": "",
    "page_number": 3,
    "source_url": "https://www.annuaire-gratuit.ma/recherche/pharmacies-ville-kénitra-pg3",
    "latitude": 34.2509216,
    "longitude": -6.608965700000001,
    "geocoded": true,
    "rating": 4.0,
    "reviewCount": 37
  },
  {
    "name": "Pharmacie Riad",
    "address": "Pharmacie Riad, Kenitra, Morocco",
    "city": "Kenitra",
    "phone": "05 37 36 29 72",
    "page_number": 3,
    "source_url": "https://www.annuaire-gratuit.ma/recherche/pharmacies-ville-kénitra-pg3",
    "latitude": 34.2654271,
    "longitude": -6.5616965,
    "geocoded": true,
    "rating": 3.8,
    "reviewCount": 39
  },
  {
    "name": "Pharmacie Amine",
    "address": "Pharmacie Amine, Kenitra, Morocco",
    "city": "Kenitra",
    "phone": "06 65 30 63 88",
    "page_number": 3,
    "source_url": "https://www.annuaire-gratuit.ma/recherche/pharmacies-ville-kénitra-pg3",
    "latitude": 34.2432048,
    "longitude": -6.6131873,
    "geocoded": true,
    "rating": 4.2,
    "reviewCount": 39
  },
  {
    "name": "Pharmacie la Fontaine - Ennafoura",
    "address": "Pharmacie la Fontaine - Ennafoura, Kenitra, Morocco",
    "city": "Kenitra",
    "phone": "05 37 37 32 81",
    "page_number": 3,
    "source_url": "https://www.annuaire-gratuit.ma/recherche/pharmacies-ville-kénitra-pg3",
    "latitude": 34.2598933,
    "longitude": -6.5833537,
    "geocoded": true,
    "rating": 4.2,
    "reviewCount": 3
  },
  {
    "name": "Pharmacie Principale",
    "address": "Pharmacie Principale, Kenitra, Morocco",
    "city": "Kenitra",
    "phone": "05 37 36 35 03",
    "page_number": 3,
    "source_url": "https://www.annuaire-gratuit.ma/recherche/pharmacies-ville-kénitra-pg3",
    "latitude": 34.2639769,
    "longitude": -6.5682034,
    "geocoded": true,
    "rating": 4.1,
    "reviewCount": 48
  },
  {
    "name": "Pharmacie Lotissement El Assam",
    "address": "Pharmacie Lotissement El Assam, Kenitra, Morocco",
    "city": "Kenitra",
    "phone": "06 96 53 86 64",
    "page_number": 3,
    "source_url": "https://www.annuaire-gratuit.ma/recherche/pharmacies-ville-kénitra-pg3",
    "latitude": 34.2866652,
    "longitude": -6.537014099999999,
    "geocoded": true,
    "rating": 5.0,
    "reviewCount": 28
  },
  {
    "name": "Pharmacie Maâmora",
    "address": "Pharmacie Maâmora, Kenitra, Morocco",
    "city": "Kenitra",
    "phone": "05 37 37 64 47",
    "page_number": 3,
    "source_url": "https://www.annuaire-gratuit.ma/recherche/pharmacies-ville-kénitra-pg3",
    "latitude": 34.2564289,
    "longitude": -6.5862807,
    "geocoded": true,
    "rating": 4.5,
    "reviewCount": 3
  },
  {
    "name": "Pharmacie El Felline",
    "address": "Pharmacie El Felline, Kenitra, Morocco",
    "city": "Kenitra",
    "phone": "06 38 81 48 67",
    "page_number": 3,
    "source_url": "https://www.annuaire-gratuit.ma/recherche/pharmacies-ville-kénitra-pg3",
    "latitude": 34.229453,
    "longitude": -6.614066900000001,
    "geocoded": true,
    "rating": 4.0,
    "reviewCount": 26
  },
  {
    "name": "Pharmacie Venezia",
    "address": "Pharmacie Venezia, Kenitra, Morocco",
    "city": "Kenitra",
    "phone": "05 37 35 50 65",
    "page_number": 3,
    "source_url": "https://www.annuaire-gratuit.ma/recherche/pharmacies-ville-kénitra-pg3",
    "latitude": 34.2754392,
    "longitude": -6.604282,
    "geocoded": true,
    "rating": 4.5,
    "reviewCount": 24
  },
  {
    "name": "Pharmacie Ezzahra",
    "address": "Pharmacie Ezzahra, Kenitra, Morocco",
    "city": "Kenitra",
    "phone": "05 37 35 50 71",
    "page_number": 3,
    "source_url": "https://www.annuaire-gratuit.ma/recherche/pharmacies-ville-kénitra-pg3",
    "latitude": 34.2503433,
    "longitude": -6.6203181,
    "geocoded": true,
    "rating": 4.8,
    "reviewCount": 30
  },
  {
    "name": "Pharmacie de l'hôpital",
    "address": "Pharmacie de l'hôpital, Kenitra, Morocco",
    "city": "Kenitra",
    "phone": "05 37 38 10 37",
    "page_number": 3,
    "source_url": "https://www.annuaire-gratuit.ma/recherche/pharmacies-ville-kénitra-pg3",
    "latitude": 34.2538656,
    "longitude": -6.559079199999999,
    "geocoded": true,
    "rating": 4.9,
    "reviewCount": 21
  },
  {
    "name": "Pharmacie Jamaa M 039 Chich",
    "address": "Pharmacie Jamaa M 039 Chich, Kenitra, Morocco",
    "city": "Kenitra",
    "phone": "06 51 83 77 69",
    "page_number": 3,
    "source_url": "https://www.annuaire-gratuit.ma/recherche/pharmacies-ville-kénitra-pg3",
    "latitude": 34.2450361,
    "longitude": -6.5985004,
    "geocoded": true,
    "rating": 4.0,
    "reviewCount": 44
  },
  {
    "name": "Pharmacie Doukkala",
    "address": "Pharmacie Doukkala, Kenitra, Morocco",
    "city": "Kenitra",
    "phone": "06 36 16 84 02",
    "page_number": 3,
    "source_url": "https://www.annuaire-gratuit.ma/recherche/pharmacies-ville-kénitra-pg3",
    "latitude": 34.2296375,
    "longitude": -6.5433695,
    "geocoded": true,
    "rating": 4.9,
    "reviewCount": 8
  },
  {
    "name": "Pharmacie Chark Al Madina",
    "address": "Pharmacie Chark Al Madina, Kenitra, Morocco",
    "city": "Kenitra",
    "phone": "06 08 55 61 41",
    "page_number": 3,
    "source_url": "https://www.annuaire-gratuit.ma/recherche/pharmacies-ville-kénitra-pg3",
    "latitude": 34.2253202,
    "longitude": -6.536640900000001,
    "geocoded": true,
    "rating": 4.1,
    "reviewCount": 21
  },
  {
    "name": "Pharmacie Benhaddou",
    "address": "Pharmacie Benhaddou, Kenitra, Morocco",
    "city": "Kenitra",
    "phone": "05 37 32 20 49",
    "page_number": 3,
    "source_url": "https://www.annuaire-gratuit.ma/recherche/pharmacies-ville-kénitra-pg3",
    "latitude": 34.2714551,
    "longitude": -6.62914,
    "geocoded": true,
    "rating": 4.6,
    "reviewCount": 45
  },
  {
    "name": "Pharmacie AlBaraka",
    "address": "Pharmacie AlBaraka, Sale, Morocco",
    "city": "Sale",
    "phone": "05 37 84 59 59",
    "page_number": 3,
    "source_url": "https://www.annuaire-gratuit.ma/recherche/pharmacies-ville-kénitra-pg3",
    "latitude": 33.5681858,
    "longitude": -7.538401899999998,
    "geocoded": true,
    "rating": 4.9,
    "reviewCount": 34
  },
  {
    "name": "Pharmacie Ouled Nsar",
    "address": "Pharmacie Ouled Nsar, Kenitra, Morocco",
    "city": "Kenitra",
    "phone": "05 37 37 60 79",
    "page_number": 3,
    "source_url": "https://www.annuaire-gratuit.ma/recherche/pharmacies-ville-kénitra-pg3",
    "latitude": 34.1931897,
    "longitude": -6.683523,
    "geocoded": true,
    "rating": 4.0,
    "reviewCount": 26
  },
  {
    "name": "Pharmacie Ouled Arfa",
    "address": "Pharmacie Ouled Arfa, Kenitra, Morocco",
    "city": "Kenitra",
    "phone": "05 50 03 95 72",
    "page_number": 3,
    "source_url": "https://www.annuaire-gratuit.ma/recherche/pharmacies-ville-kénitra-pg3",
    "latitude": 34.2421283,
    "longitude": -6.5457657,
    "geocoded": true,
    "rating": 4.9,
    "reviewCount": 16
  },
  {
    "name": "Pharmacie Rayane",
    "address": "Pharmacie Rayane, Kenitra, Morocco",
    "city": "Kenitra",
    "phone": "05 37 35 29 57",
    "page_number": 3,
    "source_url": "https://www.annuaire-gratuit.ma/recherche/pharmacies-ville-kénitra-pg3",
    "latitude": 34.2706104,
    "longitude": -6.606519599999999,
    "geocoded": true,
    "rating": 5.0,
    "reviewCount": 35
  },
  {
    "name": "Pharmacie Principale",
    "address": "Pharmacie Principale, Kenitra, Morocco",
    "city": "Kenitra",
    "phone": "05 37 36 35 03",
    "page_number": 4,
    "source_url": "https://www.annuaire-gratuit.ma/recherche/pharmacies-ville-kénitra-pg4",
    "latitude": 34.2639769,
    "longitude": -6.5682034,
    "geocoded": true,
    "rating": 4.2,
    "reviewCount": 46
  },
  {
    "name": "Pharmacie ElFilali",
    "address": "Pharmacie ElFilali, Sale, Morocco",
    "city": "Sale",
    "phone": "05 37 78 23 88",
    "page_number": 4,
    "source_url": "https://www.annuaire-gratuit.ma/recherche/pharmacies-ville-kénitra-pg4",
    "latitude": 34.2541193,
    "longitude": -6.5890947,
    "geocoded": true,
    "rating": 4.6,
    "reviewCount": 11
  },
  {
    "name": "Pharmacie ElReda",
    "address": "Pharmacie ElReda, Kenitra, Morocco",
    "city": "Kenitra",
    "phone": "05 37 39 20 42",
    "page_number": 4,
    "source_url": "https://www.annuaire-gratuit.ma/recherche/pharmacies-ville-kénitra-pg4",
    "latitude": 34.2483391,
    "longitude": -6.5475184,
    "geocoded": true,
    "rating": 3.9,
    "reviewCount": 3
  },
  {
    "name": "Pharmacie Nour Salé (ex-himmich)",
    "address": "Pharmacie Nour Salé (ex-himmich), Sale, Morocco",
    "city": "Sale",
    "phone": "05 37 88 07 17",
    "page_number": 4,
    "source_url": "https://www.annuaire-gratuit.ma/recherche/pharmacies-ville-kénitra-pg4",
    "latitude": 34.051503,
    "longitude": -6.812950799999999,
    "geocoded": true,
    "rating": 4.6,
    "reviewCount": 17
  },
  {
    "name": "Pharmacie Al Manal",
    "address": "Pharmacie Al Manal, Kenitra, Morocco",
    "city": "Kenitra",
    "phone": "05 37 35 09 21",
    "page_number": 4,
    "source_url": "https://www.annuaire-gratuit.ma/recherche/pharmacies-ville-kénitra-pg4",
    "latitude": 34.2443439,
    "longitude": -6.6169077,
    "geocoded": true,
    "rating": 4.4,
    "reviewCount": 4
  },
  {
    "name": "Pharmacie Ibn Khaldoun",
    "address": "Pharmacie Ibn Khaldoun, Kenitra, Morocco",
    "city": "Kenitra",
    "phone": "05 37 38 29 76",
    "page_number": 4,
    "source_url": "https://www.annuaire-gratuit.ma/recherche/pharmacies-ville-kénitra-pg4",
    "latitude": 34.2420902,
    "longitude": -6.5535153,
    "geocoded": true,
    "rating": 4.4,
    "reviewCount": 44
  },
  {
    "name": "Pharmacie El Gueddari",
    "address": "Pharmacie El Gueddari, Kenitra, Morocco",
    "city": "Kenitra",
    "phone": "05 34 19 72 90",
    "page_number": 4,
    "source_url": "https://www.annuaire-gratuit.ma/recherche/pharmacies-ville-kénitra-pg4",
    "latitude": 34.2637191,
    "longitude": -6.5597314,
    "geocoded": true,
    "rating": 4.1,
    "reviewCount": 3
  },
  {
    "name": "Pharmacie Espace Santé",
    "address": "Pharmacie Espace Santé, Kenitra, Morocco",
    "city": "Kenitra",
    "phone": "05 37 36 31 38",
    "page_number": 4,
    "source_url": "https://www.annuaire-gratuit.ma/recherche/pharmacies-ville-kénitra-pg4",
    "latitude": 34.2529089,
    "longitude": -6.5957672,
    "geocoded": true,
    "rating": 4.9,
    "reviewCount": 20
  },
  {
    "name": "Pharmacie Cherkaoui",
    "address": "Pharmacie Cherkaoui, Kenitra, Morocco",
    "city": "Kenitra",
    "phone": "05 37 39 24 44",
    "page_number": 4,
    "source_url": "https://www.annuaire-gratuit.ma/recherche/pharmacies-ville-kénitra-pg4",
    "latitude": 34.2414072,
    "longitude": -6.551129299999999,
    "geocoded": true,
    "rating": 4.7,
    "reviewCount": 40
  },
  {
    "name": "Pharmacie Sakani",
    "address": "Pharmacie Sakani, Sale, Morocco",
    "city": "Sale",
    "phone": "05 37 84 60 70",
    "page_number": 4,
    "source_url": "https://www.annuaire-gratuit.ma/recherche/pharmacies-ville-kénitra-pg4",
    "latitude": 34.08149040000001,
    "longitude": -6.782318999999999,
    "geocoded": true,
    "rating": 4.4,
    "reviewCount": 11
  },
  {
    "name": "Pharmacie Yousra et Zarka",
    "address": "Pharmacie Yousra et Zarka, Sale, Morocco",
    "city": "Sale",
    "phone": "05 37 87 88 35",
    "page_number": 4,
    "source_url": "https://www.annuaire-gratuit.ma/recherche/pharmacies-ville-kénitra-pg4",
    "latitude": 34.2683153,
    "longitude": -6.6158984,
    "geocoded": true,
    "rating": 4.3,
    "reviewCount": 22
  },
  {
    "name": "Pharmacie Cité d'Urgence",
    "address": "Pharmacie Cité d'Urgence, Kénitra, Morocco",
    "city": "Kénitra",
    "phone": "05 37 36 33 89",
    "page_number": 4,
    "source_url": "https://www.annuaire-gratuit.ma/recherche/pharmacies-ville-kénitra-pg4",
    "latitude": 34.2707863,
    "longitude": -6.5945557,
    "geocoded": true,
    "rating": 4.1,
    "reviewCount": 11
  },
  {
    "name": "Pharmacie Eucalyptus",
    "address": "Pharmacie Eucalyptus, Kenitra, Morocco",
    "city": "Kenitra",
    "phone": "05 37 35 10 75",
    "page_number": 4,
    "source_url": "https://www.annuaire-gratuit.ma/recherche/pharmacies-ville-kénitra-pg4",
    "latitude": 34.2725628,
    "longitude": -6.6220691,
    "geocoded": true,
    "rating": 4.6,
    "reviewCount": 33
  },
  {
    "name": "Pharmacie Ain Arris",
    "address": "Pharmacie Ain Arris, Kenitra, Morocco",
    "city": "Kenitra",
    "phone": "05 37 38 15 13",
    "page_number": 4,
    "source_url": "https://www.annuaire-gratuit.ma/recherche/pharmacies-ville-kénitra-pg4",
    "latitude": 34.2266206,
    "longitude": -6.5177217,
    "geocoded": true,
    "rating": 4.1,
    "reviewCount": 30
  },
  {
    "name": "Pharmacie Doukkala",
    "address": "Pharmacie Doukkala, Kenitra, Morocco",
    "city": "Kenitra",
    "phone": "06 36 16 84 02",
    "page_number": 4,
    "source_url": "https://www.annuaire-gratuit.ma/recherche/pharmacies-ville-kénitra-pg4",
    "latitude": 34.2296375,
    "longitude": -6.5433695,
    "geocoded": true,
    "rating": 3.8,
    "reviewCount": 8
  },
  {
    "name": "Pharmacie Al Houda",
    "address": "Pharmacie Al Houda, Kenitra, Morocco",
    "city": "Kenitra",
    "phone": "05 37 36 77 32",
    "page_number": 4,
    "source_url": "https://www.annuaire-gratuit.ma/recherche/pharmacies-ville-kénitra-pg4",
    "latitude": 34.2270347,
    "longitude": -6.619919899999999,
    "geocoded": true,
    "rating": 4.2,
    "reviewCount": 47
  },
  {
    "name": "Pharmacie Jnane Ikbal",
    "address": "Pharmacie Jnane Ikbal, Kenitra, Morocco",
    "city": "Kenitra",
    "phone": "07 00 80 85 86",
    "page_number": 4,
    "source_url": "https://www.annuaire-gratuit.ma/recherche/pharmacies-ville-kénitra-pg4",
    "latitude": 34.221347,
    "longitude": -6.614040399999999,
    "geocoded": true,
    "rating": 3.5,
    "reviewCount": 33
  },
  {
    "name": "Pharmacie Hamza",
    "address": "Pharmacie Hamza, Kenitra, Morocco",
    "city": "Kenitra",
    "phone": "05 37 39 21 36",
    "page_number": 4,
    "source_url": "https://www.annuaire-gratuit.ma/recherche/pharmacies-ville-kénitra-pg4",
    "latitude": 34.2444808,
    "longitude": -6.553980399999999,
    "geocoded": true,
    "rating": 4.5,
    "reviewCount": 44
  },
  {
    "name": "Pharmacie Warikane",
    "address": "Pharmacie Warikane, Kenitra, Morocco",
    "city": "Kenitra",
    "phone": "06 65 74 38 39",
    "page_number": 4,
    "source_url": "https://www.annuaire-gratuit.ma/recherche/pharmacies-ville-kénitra-pg4",
    "latitude": 34.2662793,
    "longitude": -6.591332500000001,
    "geocoded": true,
    "rating": 4.5,
    "reviewCount": 23
  },
  {
    "name": "Pharmacie Assam",
    "address": "Pharmacie Assam, Kenitra, Morocco",
    "city": "Kenitra",
    "phone": "05 37 37 72 84",
    "page_number": 4,
    "source_url": "https://www.annuaire-gratuit.ma/recherche/pharmacies-ville-kénitra-pg4",
    "latitude": 34.2797813,
    "longitude": -6.5415987,
    "geocoded": true,
    "rating": 4.9,
    "reviewCount": 41
  },
  {
    "name": "Pharmacie Des Orangers",
    "address": "Pharmacie Des Orangers, Kenitra, Morocco",
    "city": "Kenitra",
    "phone": "07 06 05 56 66",
    "page_number": 5,
    "source_url": "https://www.annuaire-gratuit.ma/recherche/pharmacies-ville-kénitra-pg5",
    "latitude": 34.2152578,
    "longitude": -6.625818600000001,
    "geocoded": true,
    "rating": 4.6,
    "reviewCount": 11
  },
  {
    "name": "Pharmacie Eucalyptus",
    "address": "Pharmacie Eucalyptus, Kenitra, Morocco",
    "city": "Kenitra",
    "phone": "05 37 35 10 75",
    "page_number": 5,
    "source_url": "https://www.annuaire-gratuit.ma/recherche/pharmacies-ville-kénitra-pg5",
    "latitude": 34.2725628,
    "longitude": -6.6220691,
    "geocoded": true,
    "rating": 4.4,
    "reviewCount": 4
  },
  {
    "name": "Pharmacie Haddioui",
    "address": "Pharmacie Haddioui, Kenitra, Morocco",
    "city": "Kenitra",
    "phone": "05 37 36 79 17",
    "page_number": 5,
    "source_url": "https://www.annuaire-gratuit.ma/recherche/pharmacies-ville-kénitra-pg5",
    "latitude": 34.2769784,
    "longitude": -6.5941472,
    "geocoded": true,
    "rating": 4.6,
    "reviewCount": 40
  },
  {
    "name": "Pharmacie Tourabi",
    "address": "Pharmacie Tourabi, Kenitra, Morocco",
    "city": "Kenitra",
    "phone": "05 37 31 67 63",
    "page_number": 5,
    "source_url": "https://www.annuaire-gratuit.ma/recherche/pharmacies-ville-kénitra-pg5",
    "latitude": 34.2623307,
    "longitude": -6.602040499999999,
    "geocoded": true,
    "rating": 4.1,
    "reviewCount": 49
  },
  {
    "name": "Pharmacie Ilyas Assam",
    "address": "Pharmacie Ilyas Assam, Kenitra, Morocco",
    "city": "Kenitra",
    "phone": "05 37 30 76 57",
    "page_number": 5,
    "source_url": "https://www.annuaire-gratuit.ma/recherche/pharmacies-ville-kénitra-pg5",
    "latitude": 34.2815042,
    "longitude": -6.5363557,
    "geocoded": true,
    "rating": 4.6,
    "reviewCount": 40
  },
  {
    "name": "Pharmacie Larma",
    "address": "Pharmacie Larma, Kenitra, Morocco",
    "city": "Kenitra",
    "phone": "05 37 38 68 00",
    "page_number": 5,
    "source_url": "https://www.annuaire-gratuit.ma/recherche/pharmacies-ville-kénitra-pg5",
    "latitude": 34.2571154,
    "longitude": -6.5555156,
    "geocoded": true,
    "rating": 4.6,
    "reviewCount": 34
  },
  {
    "name": "Pharmacie Almaghrib Du Maroc",
    "address": "Pharmacie Almaghrib Du Maroc, Kenitra, Morocco",
    "city": "Kenitra",
    "phone": "05 37 38 15 25",
    "page_number": 5,
    "source_url": "https://www.annuaire-gratuit.ma/recherche/pharmacies-ville-kénitra-pg5",
    "latitude": 34.2367828,
    "longitude": -6.5447288,
    "geocoded": true,
    "rating": 4.6,
    "reviewCount": 36
  },
  {
    "name": "Pharmacie Benhaddou",
    "address": "Pharmacie Benhaddou, Kenitra, Morocco",
    "city": "Kenitra",
    "phone": "05 37 32 20 49",
    "page_number": 5,
    "source_url": "https://www.annuaire-gratuit.ma/recherche/pharmacies-ville-kénitra-pg5",
    "latitude": 34.2714551,
    "longitude": -6.62914,
    "geocoded": true,
    "rating": 4.8,
    "reviewCount": 38
  },
  {
    "name": "Pharmacie Centrale Bir Rami",
    "address": "Pharmacie Centrale Bir Rami, Kenitra, Morocco",
    "city": "Kenitra",
    "phone": "07 07 81 14 75",
    "page_number": 5,
    "source_url": "https://www.annuaire-gratuit.ma/recherche/pharmacies-ville-kénitra-pg5",
    "latitude": 34.2198313,
    "longitude": -6.620138799999999,
    "geocoded": true,
    "rating": 4.9,
    "reviewCount": 5
  },
  {
    "name": "Pharmacie Fadl Allah",
    "address": "Pharmacie Fadl Allah, Sale, Morocco",
    "city": "Sale",
    "phone": "05 37 88 55 18",
    "page_number": 5,
    "source_url": "https://www.annuaire-gratuit.ma/recherche/pharmacies-ville-kénitra-pg5",
    "latitude": 34.2620434,
    "longitude": -6.5574981,
    "geocoded": true,
    "rating": 4.3,
    "reviewCount": 46
  },
  {
    "name": "Pharmacie Jalale",
    "address": "Pharmacie Jalale, Kenitra, Morocco",
    "city": "Kenitra",
    "phone": "05 37 35 86 43",
    "page_number": 5,
    "source_url": "https://www.annuaire-gratuit.ma/recherche/pharmacies-ville-kénitra-pg5",
    "latitude": 34.2719484,
    "longitude": -6.616952,
    "geocoded": true,
    "rating": 4.9,
    "reviewCount": 2
  },
  {
    "name": "Pharmacie La Perle de Mehdia",
    "address": "Pharmacie La Perle de Mehdia, Mehdia, Morocco",
    "city": "Mehdia",
    "phone": "05 30 11 32 58",
    "page_number": 5,
    "source_url": "https://www.annuaire-gratuit.ma/recherche/pharmacies-ville-kénitra-pg5",
    "latitude": 34.2523923,
    "longitude": -6.656777099999999,
    "geocoded": true,
    "rating": 3.7,
    "reviewCount": 14
  },
  {
    "name": "Pharmacie Jnane",
    "address": "Pharmacie Jnane, Kenitra, Morocco",
    "city": "Kenitra",
    "phone": "07 07 12 70 44",
    "page_number": 5,
    "source_url": "https://www.annuaire-gratuit.ma/recherche/pharmacies-ville-kénitra-pg5",
    "latitude": 34.2172317,
    "longitude": -6.631873100000001,
    "geocoded": true,
    "rating": 4.2,
    "reviewCount": 10
  },
  {
    "name": "Pharmacie Aya",
    "address": "Pharmacie Aya, Kenitra, Morocco",
    "city": "Kenitra",
    "phone": "05 50 10 78 79",
    "page_number": 5,
    "source_url": "https://www.annuaire-gratuit.ma/recherche/pharmacies-ville-kénitra-pg5",
    "latitude": 34.2682607,
    "longitude": -6.627383600000001,
    "geocoded": true,
    "rating": 4.7,
    "reviewCount": 20
  },
  {
    "name": "Pharmacie Lafouissi",
    "address": "Pharmacie Lafouissi, Kenitra, Morocco",
    "city": "Kenitra",
    "phone": "07 66 80 69 21",
    "page_number": 5,
    "source_url": "https://www.annuaire-gratuit.ma/recherche/pharmacies-ville-kénitra-pg5",
    "latitude": 34.2290405,
    "longitude": -6.6107195,
    "geocoded": true,
    "rating": 4.8,
    "reviewCount": 40
  },
  {
    "name": "Pharmacie Bismillah",
    "address": "Pharmacie Bismillah, Kenitra, Morocco",
    "city": "Kenitra",
    "phone": "05 37 38 35 76",
    "page_number": 5,
    "source_url": "https://www.annuaire-gratuit.ma/recherche/pharmacies-ville-kénitra-pg5",
    "latitude": 34.2645546,
    "longitude": -6.556481799999999,
    "geocoded": true,
    "rating": 4.1,
    "reviewCount": 13
  },
  {
    "name": "Pharmacie Haddioui",
    "address": "Pharmacie Haddioui, Kenitra, Morocco",
    "city": "Kenitra",
    "phone": "05 37 36 79 17",
    "page_number": 5,
    "source_url": "https://www.annuaire-gratuit.ma/recherche/pharmacies-ville-kénitra-pg5",
    "latitude": 34.2769784,
    "longitude": -6.5941472,
    "geocoded": true,
    "rating": 4.7,
    "reviewCount": 27
  },
  {
    "name": "Pharmacie Lhaddada",
    "address": "Pharmacie Lhaddada, Kenitra, Morocco",
    "city": "Kenitra",
    "phone": "05 37 35 68 54",
    "page_number": 5,
    "source_url": "https://www.annuaire-gratuit.ma/recherche/pharmacies-ville-kénitra-pg5",
    "latitude": 34.2698222,
    "longitude": -6.6226442,
    "geocoded": true,
    "rating": 4.0,
    "reviewCount": 50
  },
  {
    "name": "Pharmacie Rayane",
    "address": "Pharmacie Rayane, Kenitra, Morocco",
    "city": "Kenitra",
    "phone": "",
    "page_number": 5,
    "source_url": "https://www.annuaire-gratuit.ma/recherche/pharmacies-ville-kénitra-pg5",
    "latitude": 34.2706104,
    "longitude": -6.606519599999999,
    "geocoded": true,
    "rating": 4.7,
    "reviewCount": 8
  },
  {
    "name": "Pharmacie le moulin",
    "address": "Pharmacie le moulin, Kénitra, Morocco",
    "city": "Kénitra",
    "phone": "05 37 38 69 28",
    "page_number": 5,
    "source_url": "https://www.annuaire-gratuit.ma/recherche/pharmacies-ville-kénitra-pg5",
    "latitude": 34.2576565,
    "longitude": -6.560608999999999,
    "geocoded": true,
    "rating": 4.9,
    "reviewCount": 35
  },
  {
    "name": "Pharmacie AlAmana",
    "address": "Pharmacie AlAmana, Kenitra, Morocco",
    "city": "Kenitra",
    "phone": "05 37 38 44 37",
    "page_number": 6,
    "source_url": "https://www.annuaire-gratuit.ma/recherche/pharmacies-ville-kénitra-pg6",
    "latitude": 34.2310859,
    "longitude": -6.5505606,
    "geocoded": true,
    "rating": 4.4,
    "reviewCount": 5
  },
  {
    "name": "Pharmacie Romanova",
    "address": "Pharmacie Romanova, Kenitra, Morocco",
    "city": "Kenitra",
    "phone": "05 37 35 33 45",
    "page_number": 6,
    "source_url": "https://www.annuaire-gratuit.ma/recherche/pharmacies-ville-kénitra-pg6",
    "latitude": 34.2656718,
    "longitude": -6.608575399999999,
    "geocoded": true,
    "rating": 5.0,
    "reviewCount": 3
  },
  {
    "name": "Pharmacie Basma",
    "address": "Pharmacie Basma, Kénitra, Morocco",
    "city": "Kénitra",
    "phone": "05 37 35 41 22",
    "page_number": 6,
    "source_url": "https://www.annuaire-gratuit.ma/recherche/pharmacies-ville-kénitra-pg6",
    "latitude": 34.2597539,
    "longitude": -6.6170972,
    "geocoded": true,
    "rating": 3.5,
    "reviewCount": 14
  },
  {
    "name": "Pharmacie Benkassou",
    "address": "Pharmacie Benkassou, Kenitra, Morocco",
    "city": "Kenitra",
    "phone": "05 30 77 71 81",
    "page_number": 6,
    "source_url": "https://www.annuaire-gratuit.ma/recherche/pharmacies-ville-kénitra-pg6",
    "latitude": 34.2477482,
    "longitude": -6.6216735,
    "geocoded": true,
    "rating": 4.9,
    "reviewCount": 18
  },
  {
    "name": "Pharmacie Tiddas Ex Al Manal",
    "address": "Pharmacie Tiddas Ex Al Manal, Kenitra, Morocco",
    "city": "Kenitra",
    "phone": "05 37 35 09 21",
    "page_number": 6,
    "source_url": "https://www.annuaire-gratuit.ma/recherche/pharmacies-ville-kénitra-pg6",
    "latitude": 34.2598688,
    "longitude": -6.6121306,
    "geocoded": true,
    "rating": 4.8,
    "reviewCount": 10
  },
  {
    "name": "Pharmacie Taibia",
    "address": "Pharmacie Taibia, Kenitra, Morocco",
    "city": "Kenitra",
    "phone": "05 37 36 25 00",
    "page_number": 6,
    "source_url": "https://www.annuaire-gratuit.ma/recherche/pharmacies-ville-kénitra-pg6",
    "latitude": 34.2752813,
    "longitude": -6.5974442,
    "geocoded": true,
    "rating": 4.8,
    "reviewCount": 12
  },
  {
    "name": "Pharmacie la Capitale du Gharb",
    "address": "Pharmacie la Capitale du Gharb, Kenitra, Morocco",
    "city": "Kenitra",
    "phone": "05 37 35 68 42",
    "page_number": 6,
    "source_url": "https://www.annuaire-gratuit.ma/recherche/pharmacies-ville-kénitra-pg6",
    "latitude": 34.2669899,
    "longitude": -6.6138293,
    "geocoded": true,
    "rating": 4.5,
    "reviewCount": 19
  },
  {
    "name": "Pharmacie Ouikrane",
    "address": "Pharmacie Ouikrane, Kenitra, Morocco",
    "city": "Kenitra",
    "phone": "05 30 08 65 64",
    "page_number": 6,
    "source_url": "https://www.annuaire-gratuit.ma/recherche/pharmacies-ville-kénitra-pg6",
    "latitude": 34.2505342,
    "longitude": -6.5196793,
    "geocoded": true,
    "rating": 3.6,
    "reviewCount": 35
  },
  {
    "name": "Pharmacie Rochdi",
    "address": "Pharmacie Rochdi, Kenitra, Morocco",
    "city": "Kenitra",
    "phone": "05 37 36 04 04",
    "page_number": 6,
    "source_url": "https://www.annuaire-gratuit.ma/recherche/pharmacies-ville-kénitra-pg6",
    "latitude": 34.2515138,
    "longitude": -6.5823307,
    "geocoded": true,
    "rating": 4.7,
    "reviewCount": 21
  },
  {
    "name": "Pharmacie Al Khayr",
    "address": "Pharmacie Al Khayr, Kenitra, Morocco",
    "city": "Kenitra",
    "phone": "06 70 87 55 17",
    "page_number": 6,
    "source_url": "https://www.annuaire-gratuit.ma/recherche/pharmacies-ville-kénitra-pg6",
    "latitude": 34.2390436,
    "longitude": -6.5381915,
    "geocoded": true,
    "rating": 4.9,
    "reviewCount": 38
  },
  {
    "name": "Pharmacie Sanae",
    "address": "Pharmacie Sanae, Kenitra, Morocco",
    "city": "Kenitra",
    "phone": "05 37 35 56 55",
    "page_number": 6,
    "source_url": "https://www.annuaire-gratuit.ma/recherche/pharmacies-ville-kénitra-pg6",
    "latitude": 34.2666595,
    "longitude": -6.6209973,
    "geocoded": true,
    "rating": 4.0,
    "reviewCount": 43
  },
  {
    "name": "Pharmacie Bab Fès",
    "address": "Pharmacie Bab Fès, Kenitra, Morocco",
    "city": "Kenitra",
    "phone": "05 37 36 46 64",
    "page_number": 6,
    "source_url": "https://www.annuaire-gratuit.ma/recherche/pharmacies-ville-kénitra-pg6",
    "latitude": 34.2678003,
    "longitude": -6.5623327,
    "geocoded": true,
    "rating": 4.1,
    "reviewCount": 40
  },
  {
    "name": "Pharmacie Ryad Salé",
    "address": "Pharmacie Ryad Salé, Sale, Morocco",
    "city": "Sale",
    "phone": "05 37 87 97 65",
    "page_number": 6,
    "source_url": "https://www.annuaire-gratuit.ma/recherche/pharmacies-ville-kénitra-pg6",
    "latitude": 34.2654271,
    "longitude": -6.5616965,
    "geocoded": true,
    "rating": 4.3,
    "reviewCount": 11
  },
  {
    "name": "Pharmacie Al Hamd",
    "address": "Pharmacie Al Hamd, Kenitra, Morocco",
    "city": "Kenitra",
    "phone": "05 37 35 74 73",
    "page_number": 6,
    "source_url": "https://www.annuaire-gratuit.ma/recherche/pharmacies-ville-kénitra-pg6",
    "latitude": 34.2492593,
    "longitude": -6.6143673,
    "geocoded": true,
    "rating": 4.4,
    "reviewCount": 17
  },
  {
    "name": "Pharmacie Ala",
    "address": "Pharmacie Ala, Kenitra, Morocco",
    "city": "Kenitra",
    "phone": "06 80 44 18 51",
    "page_number": 6,
    "source_url": "https://www.annuaire-gratuit.ma/recherche/pharmacies-ville-kénitra-pg6",
    "latitude": 34.2407263,
    "longitude": -6.6544716,
    "geocoded": true,
    "rating": 4.4,
    "reviewCount": 50
  },
  {
    "name": "Pharmacie Al Bahae",
    "address": "Pharmacie Al Bahae, Kenitra, Morocco",
    "city": "Kenitra",
    "phone": "05 37 36 57 32",
    "page_number": 6,
    "source_url": "https://www.annuaire-gratuit.ma/recherche/pharmacies-ville-kénitra-pg6",
    "latitude": 34.2351448,
    "longitude": -6.6190959,
    "geocoded": true,
    "rating": 4.9,
    "reviewCount": 16
  },
  {
    "name": "Pharmacie Badyine",
    "address": "Pharmacie Badyine, Kénitra, Morocco",
    "city": "Kénitra",
    "phone": "05 37 37 94 99",
    "page_number": 6,
    "source_url": "https://www.annuaire-gratuit.ma/recherche/pharmacies-ville-kénitra-pg6",
    "latitude": 34.2315289,
    "longitude": -6.617493,
    "geocoded": true,
    "rating": 4.2,
    "reviewCount": 37
  },
  {
    "name": "Pharmacie du Passage",
    "address": "Pharmacie du Passage, Kenitra, Morocco",
    "city": "Kenitra",
    "phone": "05 37 36 31 62",
    "page_number": 6,
    "source_url": "https://www.annuaire-gratuit.ma/recherche/pharmacies-ville-kénitra-pg6",
    "latitude": 34.2695105,
    "longitude": -6.5650353,
    "geocoded": true,
    "rating": 4.2,
    "reviewCount": 34
  },
  {
    "name": "Pharmacie Abderrahmane Nacer",
    "address": "Pharmacie Abderrahmane Nacer, Kenitra, Morocco",
    "city": "Kenitra",
    "phone": "05 37 37 17 12",
    "page_number": 6,
    "source_url": "https://www.annuaire-gratuit.ma/recherche/pharmacies-ville-kénitra-pg6",
    "latitude": 34.2606513,
    "longitude": -6.5964753,
    "geocoded": true,
    "rating": 4.9,
    "reviewCount": 1
  },
  {
    "name": "Pharmacie Dar Doua",
    "address": "Pharmacie Dar Doua, Kenitra, Morocco",
    "city": "Kenitra",
    "phone": "05 37 36 02 88",
    "page_number": 6,
    "source_url": "https://www.annuaire-gratuit.ma/recherche/pharmacies-ville-kénitra-pg6",
    "latitude": 34.2539647,
    "longitude": -6.586292599999999,
    "geocoded": true,
    "rating": 4.1,
    "reviewCount": 17
  },
  {
    "name": "Pharmacie Prestige (Majd)",
    "address": "Pharmacie Prestige (Majd), Kenitra, Morocco",
    "city": "Kenitra",
    "phone": "05 37 35 35 72",
    "page_number": 7,
    "source_url": "https://www.annuaire-gratuit.ma/recherche/pharmacies-ville-kénitra-pg7",
    "latitude": 34.2689624,
    "longitude": -6.615179899999999,
    "geocoded": true,
    "rating": 4.5,
    "reviewCount": 9
  },
  {
    "name": "Pharmacie Fadlallah",
    "address": "Pharmacie Fadlallah, Kenitra, Morocco",
    "city": "Kenitra",
    "phone": "05 37 38 33 28",
    "page_number": 7,
    "source_url": "https://www.annuaire-gratuit.ma/recherche/pharmacies-ville-kénitra-pg7",
    "latitude": 34.2620434,
    "longitude": -6.5574981,
    "geocoded": true,
    "rating": 4.5,
    "reviewCount": 28
  },
  {
    "name": "Pharmacie Sirine",
    "address": "Pharmacie Sirine, Kenitra, Morocco",
    "city": "Kenitra",
    "phone": "05 37 37 39 64",
    "page_number": 7,
    "source_url": "https://www.annuaire-gratuit.ma/recherche/pharmacies-ville-kénitra-pg7",
    "latitude": 34.2317908,
    "longitude": -6.6093289,
    "geocoded": true,
    "rating": 4.7,
    "reviewCount": 16
  },
  {
    "name": "Pharmacie Al Khabbazat Populaire",
    "address": "Pharmacie Al Khabbazat Populaire, Kenitra, Morocco",
    "city": "Kenitra",
    "phone": "05 37 36 59 23",
    "page_number": 7,
    "source_url": "https://www.annuaire-gratuit.ma/recherche/pharmacies-ville-kénitra-pg7",
    "latitude": 34.2651265,
    "longitude": -6.5660557,
    "geocoded": true,
    "rating": 4.5,
    "reviewCount": 18
  },
  {
    "name": "Pharmacie Riad",
    "address": "Pharmacie Riad, Kenitra, Morocco",
    "city": "Kenitra",
    "phone": "05 37 36 29 72",
    "page_number": 7,
    "source_url": "https://www.annuaire-gratuit.ma/recherche/pharmacies-ville-kénitra-pg7",
    "latitude": 34.2654271,
    "longitude": -6.5616965,
    "geocoded": true,
    "rating": 4.2,
    "reviewCount": 34
  },
  {
    "name": "Pharmacie Dispensaire",
    "address": "Pharmacie Dispensaire, Sale, Morocco",
    "city": "Sale",
    "phone": "05 37 87 72 25",
    "page_number": 7,
    "source_url": "https://www.annuaire-gratuit.ma/recherche/pharmacies-ville-kénitra-pg7",
    "latitude": 34.2555044,
    "longitude": -6.5969761,
    "geocoded": true,
    "rating": 4.4,
    "reviewCount": 41
  },
  {
    "name": "Pharmacie Essoufi",
    "address": "Pharmacie Essoufi, Kenitra, Morocco",
    "city": "Kenitra",
    "phone": "05 37 36 74 12",
    "page_number": 7,
    "source_url": "https://www.annuaire-gratuit.ma/recherche/pharmacies-ville-kénitra-pg7",
    "latitude": 34.2646998,
    "longitude": -6.6011028,
    "geocoded": true,
    "rating": 4.1,
    "reviewCount": 38
  },
  {
    "name": "Pharmacie Riad",
    "address": "Pharmacie Riad, Kenitra, Morocco",
    "city": "Kenitra",
    "phone": "05 37 36 28 07",
    "page_number": 7,
    "source_url": "https://www.annuaire-gratuit.ma/recherche/pharmacies-ville-kénitra-pg7",
    "latitude": 34.2654271,
    "longitude": -6.5616965,
    "geocoded": true,
    "rating": 4.2,
    "reviewCount": 20
  },
  {
    "name": "Pharmacie Assafar",
    "address": "Pharmacie Assafar, Kenitra, Morocco",
    "city": "Kenitra",
    "phone": "06 58 43 01 90",
    "page_number": 7,
    "source_url": "https://www.annuaire-gratuit.ma/recherche/pharmacies-ville-kénitra-pg7",
    "latitude": 34.2533388,
    "longitude": -6.5524681,
    "geocoded": true,
    "rating": 4.3,
    "reviewCount": 27
  },
  {
    "name": "Pharmacie Sarah",
    "address": "Pharmacie Sarah, Kenitra, Morocco",
    "city": "Kenitra",
    "phone": "05 37 36 45 41",
    "page_number": 7,
    "source_url": "https://www.annuaire-gratuit.ma/recherche/pharmacies-ville-kénitra-pg7",
    "latitude": 34.2666832,
    "longitude": -6.590438700000001,
    "geocoded": true,
    "rating": 4.9,
    "reviewCount": 8
  },
  {
    "name": "Pharmacie Rim",
    "address": "Pharmacie Rim, Kenitra, Morocco",
    "city": "Kenitra",
    "phone": "05 37 35 43 75",
    "page_number": 7,
    "source_url": "https://www.annuaire-gratuit.ma/recherche/pharmacies-ville-kénitra-pg7",
    "latitude": 34.2519346,
    "longitude": -6.627339099999999,
    "geocoded": true,
    "rating": 4.8,
    "reviewCount": 45
  },
  {
    "name": "Pharmacie Prestige Majd",
    "address": "Pharmacie Prestige Majd, Kenitra, Morocco",
    "city": "Kenitra",
    "phone": "05 37 35 35 72",
    "page_number": 7,
    "source_url": "https://www.annuaire-gratuit.ma/recherche/pharmacies-ville-kénitra-pg7",
    "latitude": 34.2689624,
    "longitude": -6.615179899999999,
    "geocoded": true,
    "rating": 4.2,
    "reviewCount": 18
  },
  {
    "name": "Pharmacie Iskan Chaabi",
    "address": "Pharmacie Iskan Chaabi, Kenitra, Morocco",
    "city": "Kenitra",
    "phone": "05 37 37 15 83",
    "page_number": 7,
    "source_url": "https://www.annuaire-gratuit.ma/recherche/pharmacies-ville-kénitra-pg7",
    "latitude": 34.2732298,
    "longitude": -6.5965022,
    "geocoded": true,
    "rating": 4.9,
    "reviewCount": 14
  },
  {
    "name": "Pharmacie Elfath",
    "address": "Pharmacie Elfath, Kenitra, Morocco",
    "city": "Kenitra",
    "phone": "05 37 38 02 82",
    "page_number": 7,
    "source_url": "https://www.annuaire-gratuit.ma/recherche/pharmacies-ville-kénitra-pg7",
    "latitude": 34.2564641,
    "longitude": -6.5575858,
    "geocoded": true,
    "rating": 4.9,
    "reviewCount": 40
  },
  {
    "name": "Pharmacie Des F A R",
    "address": "Pharmacie Des F A R, Kenitra, Morocco",
    "city": "Kenitra",
    "phone": "05 37 37 42 00",
    "page_number": 7,
    "source_url": "https://www.annuaire-gratuit.ma/recherche/pharmacies-ville-kénitra-pg7",
    "latitude": 34.2542277,
    "longitude": -6.579398299999999,
    "geocoded": true,
    "rating": 4.6,
    "reviewCount": 6
  },
  {
    "name": "Pharmacie Boushaba",
    "address": "Pharmacie Boushaba, Kenitra, Morocco",
    "city": "Kenitra",
    "phone": "",
    "page_number": 7,
    "source_url": "https://www.annuaire-gratuit.ma/recherche/pharmacies-ville-kénitra-pg7",
    "latitude": 34.230161,
    "longitude": -6.531609,
    "geocoded": true,
    "rating": 4.2,
    "reviewCount": 23
  },
  {
    "name": "Pharmacie Train Medina",
    "address": "Pharmacie Train Medina, Kenitra, Morocco",
    "city": "Kenitra",
    "phone": "05 37 36 64 22",
    "page_number": 7,
    "source_url": "https://www.annuaire-gratuit.ma/recherche/pharmacies-ville-kénitra-pg7",
    "latitude": 34.2658572,
    "longitude": -6.5672912,
    "geocoded": true,
    "rating": 4.1,
    "reviewCount": 44
  },
  {
    "name": "Pharmacie Marjana",
    "address": "Pharmacie Marjana, Sale, Morocco",
    "city": "Sale",
    "phone": "05 37 87 72 19",
    "page_number": 7,
    "source_url": "https://www.annuaire-gratuit.ma/recherche/pharmacies-ville-kénitra-pg7",
    "latitude": 34.2411552,
    "longitude": -6.570145699999999,
    "geocoded": true,
    "rating": 3.7,
    "reviewCount": 24
  },
  {
    "name": "Pharmacie Famiri",
    "address": "Pharmacie Famiri, Kenitra, Morocco",
    "city": "Kenitra",
    "phone": "06 66 05 79 00",
    "page_number": 7,
    "source_url": "https://www.annuaire-gratuit.ma/recherche/pharmacies-ville-kénitra-pg7",
    "latitude": 34.2352931,
    "longitude": -6.553061899999999,
    "geocoded": true,
    "rating": 4.9,
    "reviewCount": 36
  },
  {
    "name": "Pharmacie El Fath",
    "address": "Pharmacie El Fath, Kenitra, Morocco",
    "city": "Kenitra",
    "phone": "05 35 38 02 82",
    "page_number": 7,
    "source_url": "https://www.annuaire-gratuit.ma/recherche/pharmacies-ville-kénitra-pg7",
    "latitude": 34.2564641,
    "longitude": -6.5575858,
    "geocoded": true,
    "rating": 4.5,
    "reviewCount": 13
  },
  {
    "name": "Pharmacie Bab Fès",
    "address": "Pharmacie Bab Fès, Kenitra, Morocco",
    "city": "Kenitra",
    "phone": "05 37 36 46 64",
    "page_number": 8,
    "source_url": "https://www.annuaire-gratuit.ma/recherche/pharmacies-ville-kénitra-pg8",
    "latitude": 34.2678003,
    "longitude": -6.5623327,
    "geocoded": true,
    "rating": 4.3,
    "reviewCount": 18
  },
  {
    "name": "Pharmacie Tredano - El Bakkali",
    "address": "Pharmacie Tredano - El Bakkali, Kenitra, Morocco",
    "city": "Kenitra",
    "phone": "05 37 39 49 69",
    "page_number": 8,
    "source_url": "https://www.annuaire-gratuit.ma/recherche/pharmacies-ville-kénitra-pg8",
    "latitude": 34.2407379,
    "longitude": -6.6189958,
    "geocoded": true,
    "rating": 4.2,
    "reviewCount": 29
  },
  {
    "name": "Pharmacie Assaoumaa",
    "address": "Pharmacie Assaoumaa, Kenitra, Morocco",
    "city": "Kenitra",
    "phone": "",
    "page_number": 8,
    "source_url": "https://www.annuaire-gratuit.ma/recherche/pharmacies-ville-kénitra-pg8",
    "latitude": 34.2478189,
    "longitude": -6.6083341,
    "geocoded": true,
    "rating": 3.6,
    "reviewCount": 43
  },
  {
    "name": "Pharmacie Famiri",
    "address": "Pharmacie Famiri, Kenitra, Morocco",
    "city": "Kenitra",
    "phone": "",
    "page_number": 8,
    "source_url": "https://www.annuaire-gratuit.ma/recherche/pharmacies-ville-kénitra-pg8",
    "latitude": 34.2352931,
    "longitude": -6.553061899999999,
    "geocoded": true,
    "rating": 4.8,
    "reviewCount": 7
  },
  {
    "name": "Pharmacie Al Masjid",
    "address": "Pharmacie Al Masjid, Kenitra, Morocco",
    "city": "Kenitra",
    "phone": "05 37 38 07 05",
    "page_number": 8,
    "source_url": "https://www.annuaire-gratuit.ma/recherche/pharmacies-ville-kénitra-pg8",
    "latitude": 34.2515784,
    "longitude": -6.5467645,
    "geocoded": true,
    "rating": 4.1,
    "reviewCount": 14
  },
  {
    "name": "Pharmacie Amine",
    "address": "Pharmacie Amine, Kenitra, Morocco",
    "city": "Kenitra",
    "phone": "05 34 54 93 17",
    "page_number": 8,
    "source_url": "https://www.annuaire-gratuit.ma/recherche/pharmacies-ville-kénitra-pg8",
    "latitude": 34.2432048,
    "longitude": -6.6131873,
    "geocoded": true,
    "rating": 4.8,
    "reviewCount": 21
  },
  {
    "name": "Pharmacie Al Maghreb Arabi",
    "address": "Pharmacie Al Maghreb Arabi, Kenitra, Morocco",
    "city": "Kenitra",
    "phone": "05 37 38 02 67",
    "page_number": 8,
    "source_url": "https://www.annuaire-gratuit.ma/recherche/pharmacies-ville-kénitra-pg8",
    "latitude": 34.2367828,
    "longitude": -6.5447288,
    "geocoded": true,
    "rating": 4.8,
    "reviewCount": 20
  },
  {
    "name": "Pharmacie Liya",
    "address": "Pharmacie Liya, Kenitra, Morocco",
    "city": "Kenitra",
    "phone": "05 37 32 27 41",
    "page_number": 8,
    "source_url": "https://www.annuaire-gratuit.ma/recherche/pharmacies-ville-kénitra-pg8",
    "latitude": 34.2712278,
    "longitude": -6.6258143,
    "geocoded": true,
    "rating": 4.1,
    "reviewCount": 21
  },
  {
    "name": "Pharmacie Assaoumaa",
    "address": "Pharmacie Assaoumaa, Kenitra, Morocco",
    "city": "Kenitra",
    "phone": "05 37 35 40 75",
    "page_number": 8,
    "source_url": "https://www.annuaire-gratuit.ma/recherche/pharmacies-ville-kénitra-pg8",
    "latitude": 34.2478189,
    "longitude": -6.6083341,
    "geocoded": true,
    "rating": 4.1,
    "reviewCount": 28
  },
  {
    "name": "Pharmacie Ammour",
    "address": "Pharmacie Ammour, Kenitra, Morocco",
    "city": "Kenitra",
    "phone": "05 34 25 90 02",
    "page_number": 8,
    "source_url": "https://www.annuaire-gratuit.ma/recherche/pharmacies-ville-kénitra-pg8",
    "latitude": 34.2452129,
    "longitude": -6.539546199999999,
    "geocoded": true,
    "rating": 4.7,
    "reviewCount": 6
  },
  {
    "name": "Pharmacie Jad",
    "address": "Pharmacie Jad, Salé, Morocco",
    "city": "Salé",
    "phone": "05 37 88 72 27",
    "page_number": 8,
    "source_url": "https://www.annuaire-gratuit.ma/recherche/pharmacies-ville-kénitra-pg8",
    "latitude": 34.2591723,
    "longitude": -6.589768299999999,
    "geocoded": true,
    "rating": 4.4,
    "reviewCount": 49
  },
  {
    "name": "Pharmacie de la province",
    "address": "Pharmacie de la province, Kenitra, Morocco",
    "city": "Kenitra",
    "phone": "05 37 37 52 55",
    "page_number": 8,
    "source_url": "https://www.annuaire-gratuit.ma/recherche/pharmacies-ville-kénitra-pg8",
    "latitude": 34.2590958,
    "longitude": -6.5806429,
    "geocoded": true,
    "rating": 4.8,
    "reviewCount": 22
  },
  {
    "name": "Pharmacie Fatmi",
    "address": "Pharmacie Fatmi, Kenitra, Morocco",
    "city": "Kenitra",
    "phone": "05 37 36 38 70",
    "page_number": 8,
    "source_url": "https://www.annuaire-gratuit.ma/recherche/pharmacies-ville-kénitra-pg8",
    "latitude": 34.2530762,
    "longitude": -6.6147759,
    "geocoded": true,
    "rating": 4.4,
    "reviewCount": 27
  },
  {
    "name": "Pharmacie Ibn Tofail",
    "address": "Pharmacie Ibn Tofail, Kenitra, Morocco",
    "city": "Kenitra",
    "phone": "05 37 36 57 00",
    "page_number": 8,
    "source_url": "https://www.annuaire-gratuit.ma/recherche/pharmacies-ville-kénitra-pg8",
    "latitude": 34.2325943,
    "longitude": -6.6150812,
    "geocoded": true,
    "rating": 4.7,
    "reviewCount": 5
  },
  {
    "name": "Pharmacie Smiri",
    "address": "Pharmacie Smiri, Kenitra, Morocco",
    "city": "Kenitra",
    "phone": "05 33 41 01 45",
    "page_number": 8,
    "source_url": "https://www.annuaire-gratuit.ma/recherche/pharmacies-ville-kénitra-pg8",
    "latitude": 34.2382459,
    "longitude": -6.553575500000001,
    "geocoded": true,
    "rating": 4.5,
    "reviewCount": 45
  },
  {
    "name": "Pharmacie Saknia",
    "address": "Pharmacie Saknia, Kenitra, Morocco",
    "city": "Kenitra",
    "phone": "05 37 38 00 34",
    "page_number": 8,
    "source_url": "https://www.annuaire-gratuit.ma/recherche/pharmacies-ville-kénitra-pg8",
    "latitude": 34.2458279,
    "longitude": -6.5475186,
    "geocoded": true,
    "rating": 5.0,
    "reviewCount": 34
  },
  {
    "name": "Pharmacie Corsica",
    "address": "Pharmacie Corsica, Kenitra, Morocco",
    "city": "Kenitra",
    "phone": "05 37 35 51 26",
    "page_number": 8,
    "source_url": "https://www.annuaire-gratuit.ma/recherche/pharmacies-ville-kénitra-pg8",
    "latitude": 34.2689381,
    "longitude": -6.6049299,
    "geocoded": true,
    "rating": 4.2,
    "reviewCount": 27
  },
  {
    "name": "Pharmacie Des F.a.r",
    "address": "Pharmacie Des F.a.r, Kenitra, Morocco",
    "city": "Kenitra",
    "phone": "05 37 36 67 48",
    "page_number": 8,
    "source_url": "https://www.annuaire-gratuit.ma/recherche/pharmacies-ville-kénitra-pg8",
    "latitude": 34.2542277,
    "longitude": -6.579398299999999,
    "geocoded": true,
    "rating": 3.7,
    "reviewCount": 38
  },
  {
    "name": "Pharmacie Boushaba",
    "address": "Pharmacie Boushaba, Kenitra, Morocco",
    "city": "Kenitra",
    "phone": "06963208780530022011",
    "page_number": 8,
    "source_url": "https://www.annuaire-gratuit.ma/recherche/pharmacies-ville-kénitra-pg8",
    "latitude": 34.230161,
    "longitude": -6.531609,
    "geocoded": true,
    "rating": 4.2,
    "reviewCount": 25
  },
  {
    "name": "Pharmacie Al Khabbazat Populaire",
    "address": "Pharmacie Al Khabbazat Populaire, Kenitra, Morocco",
    "city": "Kenitra",
    "phone": "05 37 36 59 23",
    "page_number": 8,
    "source_url": "https://www.annuaire-gratuit.ma/recherche/pharmacies-ville-kénitra-pg8",
    "latitude": 34.2651265,
    "longitude": -6.5660557,
    "geocoded": true,
    "rating": 4.4,
    "reviewCount": 34
  },
  {
    "name": "Pharmacie Ouled Oujih",
    "address": "Pharmacie Ouled Oujih, Kenitra, Morocco",
    "city": "Kenitra",
    "phone": "05 37 35 16 49",
    "page_number": 9,
    "source_url": "https://www.annuaire-gratuit.ma/recherche/pharmacies-ville-kénitra-pg9",
    "latitude": 34.2640742,
    "longitude": -6.613411300000001,
    "geocoded": true,
    "rating": 4.4,
    "reviewCount": 27
  },
  {
    "name": "Pharmacie Khalid",
    "address": "Pharmacie Khalid, Kenitra, Morocco",
    "city": "Kenitra",
    "phone": "05 37 38 13 11",
    "page_number": 9,
    "source_url": "https://www.annuaire-gratuit.ma/recherche/pharmacies-ville-kénitra-pg9",
    "latitude": 34.249483,
    "longitude": -6.537755,
    "geocoded": true,
    "rating": 4.8,
    "reviewCount": 31
  },
  {
    "name": "Pharmacie Arsat Salé",
    "address": "Pharmacie Arsat Salé, Sale, Morocco",
    "city": "Sale",
    "phone": "05 37 87 88 29",
    "page_number": 9,
    "source_url": "https://www.annuaire-gratuit.ma/recherche/pharmacies-ville-kénitra-pg9",
    "latitude": 34.0728459,
    "longitude": -6.797906999999999,
    "geocoded": true,
    "rating": 4.2,
    "reviewCount": 24
  },
  {
    "name": "Pharmacie des F.a.r.",
    "address": "Pharmacie des F.a.r., Kenitra, Morocco",
    "city": "Kenitra",
    "phone": "05 37 37 42 00",
    "page_number": 9,
    "source_url": "https://www.annuaire-gratuit.ma/recherche/pharmacies-ville-kénitra-pg9",
    "latitude": 34.2542277,
    "longitude": -6.579398299999999,
    "geocoded": true,
    "rating": 4.6,
    "reviewCount": 11
  },
  {
    "name": "Pharmacie Mohammed",
    "address": "Pharmacie Mohammed, Kenitra, Morocco",
    "city": "Kenitra",
    "phone": "05 37 37 35 73",
    "page_number": 9,
    "source_url": "https://www.annuaire-gratuit.ma/recherche/pharmacies-ville-kénitra-pg9",
    "latitude": 34.254047,
    "longitude": -6.5842192,
    "geocoded": true,
    "rating": 4.5,
    "reviewCount": 47
  },
  {
    "name": "Pharmacie Ibn Khaldoun",
    "address": "Pharmacie Ibn Khaldoun, Kenitra, Morocco",
    "city": "Kenitra",
    "phone": "05 37 38 29 76",
    "page_number": 9,
    "source_url": "https://www.annuaire-gratuit.ma/recherche/pharmacies-ville-kénitra-pg9",
    "latitude": 34.2420902,
    "longitude": -6.5535153,
    "geocoded": true,
    "rating": 4.4,
    "reviewCount": 41
  },
  {
    "name": "Pharmacie Sidi Abdellah",
    "address": "Pharmacie Sidi Abdellah, Bouknadel, Morocco",
    "city": "Bouknadel",
    "phone": "",
    "page_number": 9,
    "source_url": "https://www.annuaire-gratuit.ma/recherche/pharmacies-ville-kénitra-pg9",
    "latitude": 34.0828069,
    "longitude": -6.7757485,
    "geocoded": true,
    "rating": 4.9,
    "reviewCount": 7
  },
  {
    "name": "Pharmacie Yaacoub",
    "address": "Pharmacie Yaacoub, Kenitra, Morocco",
    "city": "Kenitra",
    "phone": "05 37 39 17 94",
    "page_number": 9,
    "source_url": "https://www.annuaire-gratuit.ma/recherche/pharmacies-ville-kénitra-pg9",
    "latitude": 34.2461537,
    "longitude": -6.5418898,
    "geocoded": true,
    "rating": 4.7,
    "reviewCount": 45
  },
  {
    "name": "Pharmacie Takaddoum",
    "address": "Pharmacie Takaddoum, Kenitra, Morocco",
    "city": "Kenitra",
    "phone": "05 37 37 99 97",
    "page_number": 9,
    "source_url": "https://www.annuaire-gratuit.ma/recherche/pharmacies-ville-kénitra-pg9",
    "latitude": 34.2656066,
    "longitude": -6.5738734,
    "geocoded": true,
    "rating": 4.1,
    "reviewCount": 4
  },
  {
    "name": "Pharmacie El Gueddari",
    "address": "Pharmacie El Gueddari, Kénitra, Morocco",
    "city": "Kénitra",
    "phone": "05 34 19 72 90",
    "page_number": 9,
    "source_url": "https://www.annuaire-gratuit.ma/recherche/pharmacies-ville-kénitra-pg9",
    "latitude": 34.2637191,
    "longitude": -6.5597314,
    "geocoded": true,
    "rating": 4.2,
    "reviewCount": 43
  },
  {
    "name": "Pharmacie des Nations",
    "address": "Pharmacie des Nations, Kenitra, Morocco",
    "city": "Kenitra",
    "phone": "05 37 35 11 00",
    "page_number": 9,
    "source_url": "https://www.annuaire-gratuit.ma/recherche/pharmacies-ville-kénitra-pg9",
    "latitude": 34.2599028,
    "longitude": -6.6201076,
    "geocoded": true,
    "rating": 4.1,
    "reviewCount": 37
  },
  {
    "name": "Pharmacie Ouled Arfa",
    "address": "Pharmacie Ouled Arfa, Kenitra, Morocco",
    "city": "Kenitra",
    "phone": "05 50 03 95 72",
    "page_number": 9,
    "source_url": "https://www.annuaire-gratuit.ma/recherche/pharmacies-ville-kénitra-pg9",
    "latitude": 34.2421283,
    "longitude": -6.5457657,
    "geocoded": true,
    "rating": 4.8,
    "reviewCount": 28
  },
  {
    "name": "Pharmacie AlMouna",
    "address": "Pharmacie AlMouna, Kenitra, Morocco",
    "city": "Kenitra",
    "phone": "05 37 39 06 92",
    "page_number": 9,
    "source_url": "https://www.annuaire-gratuit.ma/recherche/pharmacies-ville-kénitra-pg9",
    "latitude": 34.2437625,
    "longitude": -6.5482364,
    "geocoded": true,
    "rating": 4.5,
    "reviewCount": 18
  },
  {
    "name": "Pharmacie Touijar",
    "address": "Pharmacie Touijar, Kenitra, Morocco",
    "city": "Kenitra",
    "phone": "05 37 37 62 43",
    "page_number": 9,
    "source_url": "https://www.annuaire-gratuit.ma/recherche/pharmacies-ville-kénitra-pg9",
    "latitude": 34.2629548,
    "longitude": -6.5624718,
    "geocoded": true,
    "rating": 4.7,
    "reviewCount": 6
  },
  {
    "name": "Pharmacie ElReda",
    "address": "Pharmacie ElReda, Kénitra, Morocco",
    "city": "Kénitra",
    "phone": "05 37 39 20 42",
    "page_number": 9,
    "source_url": "https://www.annuaire-gratuit.ma/recherche/pharmacies-ville-kénitra-pg9",
    "latitude": 34.2483391,
    "longitude": -6.5475184,
    "geocoded": true,
    "rating": 3.7,
    "reviewCount": 10
  },
  {
    "name": "Pharmacie Essalam",
    "address": "Pharmacie Essalam, Kénitra, Morocco",
    "city": "Kénitra",
    "phone": "05 37 38 78 10",
    "page_number": 9,
    "source_url": "https://www.annuaire-gratuit.ma/recherche/pharmacies-ville-kénitra-pg9",
    "latitude": 34.2517315,
    "longitude": -6.5416047,
    "geocoded": true,
    "rating": 4.2,
    "reviewCount": 2
  },
  {
    "name": "Pharmacie hôtel de ville",
    "address": "Pharmacie hôtel de ville, Kenitra, Morocco",
    "city": "Kenitra",
    "phone": "05 37 37 13 98",
    "page_number": 9,
    "source_url": "https://www.annuaire-gratuit.ma/recherche/pharmacies-ville-kénitra-pg9",
    "latitude": 34.2583214,
    "longitude": -6.5882894,
    "geocoded": true,
    "rating": 4.7,
    "reviewCount": 44
  },
  {
    "name": "Pharmacie Alhamdo-Lilah",
    "address": "Pharmacie Alhamdo-Lilah, Kenitra, Morocco",
    "city": "Kenitra",
    "phone": "05 37 39 18 77",
    "page_number": 9,
    "source_url": "https://www.annuaire-gratuit.ma/recherche/pharmacies-ville-kénitra-pg9",
    "latitude": 34.2528548,
    "longitude": -6.5455044,
    "geocoded": true,
    "rating": 4.8,
    "reviewCount": 18
  },
  {
    "name": "Pharmacie Chiboub",
    "address": "Pharmacie Chiboub, Kenitra, Morocco",
    "city": "Kenitra",
    "phone": "07 01 51 08 08",
    "page_number": 9,
    "source_url": "https://www.annuaire-gratuit.ma/recherche/pharmacies-ville-kénitra-pg9",
    "latitude": 34.2258931,
    "longitude": -6.6143535,
    "geocoded": true,
    "rating": 4.6,
    "reviewCount": 11
  },
  {
    "name": "Pharmacie Al Forkane",
    "address": "Pharmacie Al Forkane, Kenitra, Morocco",
    "city": "Kenitra",
    "phone": "05 37 32 04 36",
    "page_number": 9,
    "source_url": "https://www.annuaire-gratuit.ma/recherche/pharmacies-ville-kénitra-pg9",
    "latitude": 34.2331786,
    "longitude": -6.546418999999999,
    "geocoded": true,
    "rating": 4.5,
    "reviewCount": 36
  },
  {
    "name": "Pharmacie Al Bahae",
    "address": "Pharmacie Al Bahae, Kenitra, Morocco",
    "city": "Kenitra",
    "phone": "05 37 36 57 32",
    "page_number": 10,
    "source_url": "https://www.annuaire-gratuit.ma/recherche/pharmacies-ville-kénitra-pg10",
    "latitude": 34.2351448,
    "longitude": -6.6190959,
    "geocoded": true,
    "rating": 4.4,
    "reviewCount": 9
  },
  {
    "name": "Pharmacie Arcades",
    "address": "Pharmacie Arcades, Sale, Morocco",
    "city": "Sale",
    "phone": "05 37 88 26 54",
    "page_number": 10,
    "source_url": "https://www.annuaire-gratuit.ma/recherche/pharmacies-ville-kénitra-pg10",
    "latitude": 34.2523923,
    "longitude": -6.656777099999999,
    "geocoded": true,
    "rating": 4.4,
    "reviewCount": 45
  },
  {
    "name": "Pharmacie Al Moussala",
    "address": "Pharmacie Al Moussala, Kenitra, Morocco",
    "city": "Kenitra",
    "phone": "07 00 80 52 67",
    "page_number": 10,
    "source_url": "https://www.annuaire-gratuit.ma/recherche/pharmacies-ville-kénitra-pg10",
    "latitude": 34.2440054,
    "longitude": -6.5422486,
    "geocoded": true,
    "rating": 4.9,
    "reviewCount": 34
  },
  {
    "name": "Pharmacie Essalam",
    "address": "Pharmacie Essalam, Kenitra, Morocco",
    "city": "Kenitra",
    "phone": "05 37 38 78 10",
    "page_number": 10,
    "source_url": "https://www.annuaire-gratuit.ma/recherche/pharmacies-ville-kénitra-pg10",
    "latitude": 34.2517315,
    "longitude": -6.5416047,
    "geocoded": true,
    "rating": 4.8,
    "reviewCount": 21
  },
  {
    "name": "Pharmacie Route Mehdia",
    "address": "Pharmacie Route Mehdia, Kenitra, Morocco",
    "city": "Kenitra",
    "phone": "05 37 35 54 07",
    "page_number": 10,
    "source_url": "https://www.annuaire-gratuit.ma/recherche/pharmacies-ville-kénitra-pg10",
    "latitude": 34.2703587,
    "longitude": -6.6014499,
    "geocoded": true,
    "rating": 4.7,
    "reviewCount": 26
  },
  {
    "name": "Pharmacie Ismailia",
    "address": "Pharmacie Ismailia, Kenitra, Morocco",
    "city": "Kenitra",
    "phone": "05 37 35 36 16",
    "page_number": 10,
    "source_url": "https://www.annuaire-gratuit.ma/recherche/pharmacies-ville-kénitra-pg10",
    "latitude": 34.2591422,
    "longitude": -6.6236866,
    "geocoded": true,
    "rating": 3.6,
    "reviewCount": 25
  },
  {
    "name": "Pharmacie Tahiri",
    "address": "Pharmacie Tahiri, Kenitra, Morocco",
    "city": "Kenitra",
    "phone": "05 37 32 41 14",
    "page_number": 10,
    "source_url": "https://www.annuaire-gratuit.ma/recherche/pharmacies-ville-kénitra-pg10",
    "latitude": 34.2562529,
    "longitude": -6.602753499999999,
    "geocoded": true,
    "rating": 4.4,
    "reviewCount": 40
  },
  {
    "name": "Pharmacie Al Houda",
    "address": "Pharmacie Al Houda, Kenitra, Morocco",
    "city": "Kenitra",
    "phone": "06 37 02 94 80",
    "page_number": 10,
    "source_url": "https://www.annuaire-gratuit.ma/recherche/pharmacies-ville-kénitra-pg10",
    "latitude": 34.2270347,
    "longitude": -6.619919899999999,
    "geocoded": true,
    "rating": 4.4,
    "reviewCount": 48
  },
  {
    "name": "Pharmacie Mohamed",
    "address": "Pharmacie Mohamed, Kenitra, Morocco",
    "city": "Kenitra",
    "phone": "05 37 37 35 73",
    "page_number": 10,
    "source_url": "https://www.annuaire-gratuit.ma/recherche/pharmacies-ville-kénitra-pg10",
    "latitude": 34.254047,
    "longitude": -6.5842192,
    "geocoded": true,
    "rating": 4.6,
    "reviewCount": 38
  },
  {
    "name": "Pharmacie Ain Sebaâ",
    "address": "Pharmacie Ain Sebaâ, Kenitra, Morocco",
    "city": "Kenitra",
    "phone": "05 37 38 06 44",
    "page_number": 10,
    "source_url": "https://www.annuaire-gratuit.ma/recherche/pharmacies-ville-kénitra-pg10",
    "latitude": 34.2438993,
    "longitude": -6.5510452,
    "geocoded": true,
    "rating": 4.7,
    "reviewCount": 12
  },
  {
    "name": "Pharmacie Touijar",
    "address": "Pharmacie Touijar, Kenitra, Morocco",
    "city": "Kenitra",
    "phone": "05 37 37 62 43",
    "page_number": 10,
    "source_url": "https://www.annuaire-gratuit.ma/recherche/pharmacies-ville-kénitra-pg10",
    "latitude": 34.2629548,
    "longitude": -6.5624718,
    "geocoded": true,
    "rating": 4.6,
    "reviewCount": 31
  },
  {
    "name": "Pharmacie Aswak Assalam",
    "address": "Pharmacie Aswak Assalam, Kenitra, Morocco",
    "city": "Kenitra",
    "phone": "05 37 37 64 78",
    "page_number": 10,
    "source_url": "https://www.annuaire-gratuit.ma/recherche/pharmacies-ville-kénitra-pg10",
    "latitude": 34.2478189,
    "longitude": -6.6083341,
    "geocoded": true,
    "rating": 4.4,
    "reviewCount": 19
  },
  {
    "name": "Pharmacie Annour",
    "address": "Pharmacie Annour, Kenitra, Morocco",
    "city": "Kenitra",
    "phone": "05 37 35 01 85",
    "page_number": 10,
    "source_url": "https://www.annuaire-gratuit.ma/recherche/pharmacies-ville-kénitra-pg10",
    "latitude": 34.2373573,
    "longitude": -6.5567334,
    "geocoded": true,
    "rating": 4.5,
    "reviewCount": 47
  },
  {
    "name": "Pharmacie Lourak",
    "address": "Pharmacie Lourak, Kenitra, Morocco",
    "city": "Kenitra",
    "phone": "05 37 38 11 44",
    "page_number": 10,
    "source_url": "https://www.annuaire-gratuit.ma/recherche/pharmacies-ville-kénitra-pg10",
    "latitude": 34.2599285,
    "longitude": -6.5573348,
    "geocoded": true,
    "rating": 4.5,
    "reviewCount": 43
  },
  {
    "name": "Pharmacie l'avenir",
    "address": "Pharmacie l'avenir, Kenitra, Morocco",
    "city": "Kenitra",
    "phone": "05 37 35 24 72",
    "page_number": 10,
    "source_url": "https://www.annuaire-gratuit.ma/recherche/pharmacies-ville-kénitra-pg10",
    "latitude": 34.2655841,
    "longitude": -6.616576299999999,
    "geocoded": true,
    "rating": 4.8,
    "reviewCount": 3
  },
  {
    "name": "Pharmacie Maâmora",
    "address": "Pharmacie Maâmora, Kenitra, Morocco",
    "city": "Kenitra",
    "phone": "05 37 37 64 47",
    "page_number": 10,
    "source_url": "https://www.annuaire-gratuit.ma/recherche/pharmacies-ville-kénitra-pg10",
    "latitude": 34.2564289,
    "longitude": -6.5862807,
    "geocoded": true,
    "rating": 4.7,
    "reviewCount": 41
  },
  {
    "name": "Pharmacie Hind",
    "address": "Pharmacie Hind, Kenitra, Morocco",
    "city": "Kenitra",
    "phone": "05 37 36 12 96",
    "page_number": 10,
    "source_url": "https://www.annuaire-gratuit.ma/recherche/pharmacies-ville-kénitra-pg10",
    "latitude": 34.2562584,
    "longitude": -6.5760517,
    "geocoded": true,
    "rating": 4.5,
    "reviewCount": 2
  },
  {
    "name": "Pharmacie des Palmiers",
    "address": "Pharmacie des Palmiers, Kenitra, Morocco",
    "city": "Kenitra",
    "phone": "05 37 38 78 66",
    "page_number": 10,
    "source_url": "https://www.annuaire-gratuit.ma/recherche/pharmacies-ville-kénitra-pg10",
    "latitude": 34.2542445,
    "longitude": -6.5434275,
    "geocoded": true,
    "rating": 4.1,
    "reviewCount": 37
  },
  {
    "name": "Pharmacie Lafouissi",
    "address": "Pharmacie Lafouissi, Kenitra, Morocco",
    "city": "Kenitra",
    "phone": "07 66 80 69 21",
    "page_number": 10,
    "source_url": "https://www.annuaire-gratuit.ma/recherche/pharmacies-ville-kénitra-pg10",
    "latitude": 34.2290405,
    "longitude": -6.6107195,
    "geocoded": true,
    "rating": 4.3,
    "reviewCount": 28
  },
  {
    "name": "Pharmacie De L 039 Ecole",
    "address": "Pharmacie De L 039 Ecole, Kenitra, Morocco",
    "city": "Kenitra",
    "phone": "05 37 35 02 76",
    "page_number": 10,
    "source_url": "https://www.annuaire-gratuit.ma/recherche/pharmacies-ville-kénitra-pg10",
    "latitude": 34.2627244,
    "longitude": -6.620993500000001,
    "geocoded": true,
    "rating": 3.8,
    "reviewCount": 38
  },
  {
    "name": "Pharmacie Korchi",
    "address": "Pharmacie Korchi, Kenitra, Morocco",
    "city": "Kenitra",
    "phone": "05 37 36 77 26",
    "page_number": 11,
    "source_url": "https://www.annuaire-gratuit.ma/recherche/pharmacies-ville-kénitra-pg11",
    "latitude": 34.2589462,
    "longitude": -6.5986562,
    "geocoded": true,
    "rating": 4.4,
    "reviewCount": 17
  },
  {
    "name": "Pharmacie Kénitra",
    "address": "Pharmacie Kénitra, Kenitra, Morocco",
    "city": "Kenitra",
    "phone": "05 37 37 68 99",
    "page_number": 11,
    "source_url": "https://www.annuaire-gratuit.ma/recherche/pharmacies-ville-kénitra-pg11",
    "latitude": 34.2555044,
    "longitude": -6.5969761,
    "geocoded": true,
    "rating": 4.7,
    "reviewCount": 38
  },
  {
    "name": "Pharmacie El Gueddari",
    "address": "Pharmacie El Gueddari, Kenitra, Morocco",
    "city": "Kenitra",
    "phone": "06 18 82 75 92",
    "page_number": 11,
    "source_url": "https://www.annuaire-gratuit.ma/recherche/pharmacies-ville-kénitra-pg11",
    "latitude": 34.2637191,
    "longitude": -6.5597314,
    "geocoded": true,
    "rating": 4.2,
    "reviewCount": 6
  },
  {
    "name": "Pharmacie la Grande Avenue",
    "address": "Pharmacie la Grande Avenue, Kenitra, Morocco",
    "city": "Kenitra",
    "phone": "05 37 37 54 30",
    "page_number": 11,
    "source_url": "https://www.annuaire-gratuit.ma/recherche/pharmacies-ville-kénitra-pg11",
    "latitude": 34.2345599,
    "longitude": -6.611422699999999,
    "geocoded": true,
    "rating": 5.0,
    "reviewCount": 34
  },
  {
    "name": "Pharmacie des Résidences",
    "address": "Pharmacie des Résidences, Kenitra, Morocco",
    "city": "Kenitra",
    "phone": "05 37 35 25 57",
    "page_number": 11,
    "source_url": "https://www.annuaire-gratuit.ma/recherche/pharmacies-ville-kénitra-pg11",
    "latitude": 34.2541513,
    "longitude": -6.623787600000001,
    "geocoded": true,
    "rating": 3.5,
    "reviewCount": 17
  },
  {
    "name": "Pharmacie Mohammed",
    "address": "Pharmacie Mohammed, Kenitra, Morocco",
    "city": "Kenitra",
    "phone": "",
    "page_number": 11,
    "source_url": "https://www.annuaire-gratuit.ma/recherche/pharmacies-ville-kénitra-pg11",
    "latitude": 34.254047,
    "longitude": -6.5842192,
    "geocoded": true,
    "rating": 4.8,
    "reviewCount": 3
  },
  {
    "name": "Pharmacie Masjid Arrahma",
    "address": "Pharmacie Masjid Arrahma, Kenitra, Morocco",
    "city": "Kenitra",
    "phone": "05 37 35 57 00",
    "page_number": 11,
    "source_url": "https://www.annuaire-gratuit.ma/recherche/pharmacies-ville-kénitra-pg11",
    "latitude": 34.2580944,
    "longitude": -6.619419799999999,
    "geocoded": true,
    "rating": 4.7,
    "reviewCount": 32
  },
  {
    "name": "Pharmacie Tahiri",
    "address": "Pharmacie Tahiri, Kenitra, Morocco",
    "city": "Kenitra",
    "phone": "05 37 32 41 14",
    "page_number": 11,
    "source_url": "https://www.annuaire-gratuit.ma/recherche/pharmacies-ville-kénitra-pg11",
    "latitude": 34.2562529,
    "longitude": -6.602753499999999,
    "geocoded": true,
    "rating": 3.9,
    "reviewCount": 15
  },
  {
    "name": "Pharmacie Al Mohit",
    "address": "Pharmacie Al Mohit, Sale, Morocco",
    "city": "Sale",
    "phone": "05 37 87 87 96",
    "page_number": 11,
    "source_url": "https://www.annuaire-gratuit.ma/recherche/pharmacies-ville-kénitra-pg11",
    "latitude": 34.0771862,
    "longitude": -6.7873353,
    "geocoded": true,
    "rating": 4.3,
    "reviewCount": 12
  },
  {
    "name": "Pharmacie bir Rami",
    "address": "Pharmacie bir Rami, Kenitra, Morocco",
    "city": "Kenitra",
    "phone": "05 37 37 45 90",
    "page_number": 11,
    "source_url": "https://www.annuaire-gratuit.ma/recherche/pharmacies-ville-kénitra-pg11",
    "latitude": 34.2534606,
    "longitude": -6.595559,
    "geocoded": true,
    "rating": 4.1,
    "reviewCount": 12
  },
  {
    "name": "Pharmacie Aya",
    "address": "Pharmacie Aya, Kenitra, Morocco",
    "city": "Kenitra",
    "phone": "05 37 35 82 33",
    "page_number": 11,
    "source_url": "https://www.annuaire-gratuit.ma/recherche/pharmacies-ville-kénitra-pg11",
    "latitude": 34.2682607,
    "longitude": -6.627383600000001,
    "geocoded": true,
    "rating": 4.1,
    "reviewCount": 37
  },
  {
    "name": "Pharmacie Sophia",
    "address": "Pharmacie Sophia, Kénitra, Morocco",
    "city": "Kénitra",
    "phone": "05 37 39 20 03",
    "page_number": 11,
    "source_url": "https://www.annuaire-gratuit.ma/recherche/pharmacies-ville-kénitra-pg11",
    "latitude": 34.2382289,
    "longitude": -6.5481398,
    "geocoded": true,
    "rating": 4.0,
    "reviewCount": 22
  },
  {
    "name": "Pharmacie L 039 Avenir",
    "address": "Pharmacie L 039 Avenir, Kenitra, Morocco",
    "city": "Kenitra",
    "phone": "05 37 35 24 72",
    "page_number": 11,
    "source_url": "https://www.annuaire-gratuit.ma/recherche/pharmacies-ville-kénitra-pg11",
    "latitude": 34.2655841,
    "longitude": -6.616576299999999,
    "geocoded": true,
    "rating": 4.9,
    "reviewCount": 21
  },
  {
    "name": "Pharmacie Ibn Tofail",
    "address": "Pharmacie Ibn Tofail, Kenitra, Morocco",
    "city": "Kenitra",
    "phone": "05 37 36 57 00",
    "page_number": 11,
    "source_url": "https://www.annuaire-gratuit.ma/recherche/pharmacies-ville-kénitra-pg11",
    "latitude": 34.2325943,
    "longitude": -6.6150812,
    "geocoded": true,
    "rating": 4.6,
    "reviewCount": 22
  },
  {
    "name": "Pharmacie la Santé",
    "address": "Pharmacie la Santé, Kenitra, Morocco",
    "city": "Kenitra",
    "phone": "05 37 30 55 29",
    "page_number": 11,
    "source_url": "https://www.annuaire-gratuit.ma/recherche/pharmacies-ville-kénitra-pg11",
    "latitude": 34.2573859,
    "longitude": -6.616210799999999,
    "geocoded": true,
    "rating": 4.8,
    "reviewCount": 9
  },
  {
    "name": "Pharmacie Sanae",
    "address": "Pharmacie Sanae, Kenitra, Morocco",
    "city": "Kenitra",
    "phone": "05 37 35 56 55",
    "page_number": 11,
    "source_url": "https://www.annuaire-gratuit.ma/recherche/pharmacies-ville-kénitra-pg11",
    "latitude": 34.2666595,
    "longitude": -6.6209973,
    "geocoded": true,
    "rating": 4.9,
    "reviewCount": 24
  },
  {
    "name": "Pharmacie Arrissala",
    "address": "Pharmacie Arrissala, Kenitra, Morocco",
    "city": "Kenitra",
    "phone": "05 30 00 59 30",
    "page_number": 11,
    "source_url": "https://www.annuaire-gratuit.ma/recherche/pharmacies-ville-kénitra-pg11",
    "latitude": 34.2716,
    "longitude": -6.609977,
    "geocoded": true,
    "rating": 4.3,
    "reviewCount": 11
  },
  {
    "name": "Pharmacie bir Rami",
    "address": "Pharmacie bir Rami, Kenitra, Morocco",
    "city": "Kenitra",
    "phone": "05 37 37 45 90",
    "page_number": 11,
    "source_url": "https://www.annuaire-gratuit.ma/recherche/pharmacies-ville-kénitra-pg11",
    "latitude": 34.2534606,
    "longitude": -6.595559,
    "geocoded": true,
    "rating": 4.9,
    "reviewCount": 10
  },
  {
    "name": "Pharmacie Ait El Cadi",
    "address": "Pharmacie Ait El Cadi, Kenitra, Morocco",
    "city": "Kenitra",
    "phone": "05 37 37 34 33",
    "page_number": 11,
    "source_url": "https://www.annuaire-gratuit.ma/recherche/pharmacies-ville-kénitra-pg11",
    "latitude": 34.2530762,
    "longitude": -6.6147759,
    "geocoded": true,
    "rating": 4.8,
    "reviewCount": 45
  },
  {
    "name": "Pharmacie Azharoun",
    "address": "Pharmacie Azharoun, Kenitra, Morocco",
    "city": "Kenitra",
    "phone": "05 37 35 00 20",
    "page_number": 11,
    "source_url": "https://www.annuaire-gratuit.ma/recherche/pharmacies-ville-kénitra-pg11",
    "latitude": 34.2678003,
    "longitude": -6.6021405,
    "geocoded": true,
    "rating": 5.0,
    "reviewCount": 37
  },
  {
    "name": "Pharmacie Hind",
    "address": "Pharmacie Hind, Kénitra, Morocco",
    "city": "Kénitra",
    "phone": "05 37 36 12 96",
    "page_number": 12,
    "source_url": "https://www.annuaire-gratuit.ma/recherche/pharmacies-ville-kénitra-pg12",
    "latitude": 34.2562584,
    "longitude": -6.5760517,
    "geocoded": true,
    "rating": 4.0,
    "reviewCount": 48
  },
  {
    "name": "Pharmacie Sidi Al Boukhari",
    "address": "Pharmacie Sidi Al Boukhari, Kenitra, Morocco",
    "city": "Kenitra",
    "phone": "05 37 36 45 05",
    "page_number": 12,
    "source_url": "https://www.annuaire-gratuit.ma/recherche/pharmacies-ville-kénitra-pg12",
    "latitude": 34.2546199,
    "longitude": -6.6044898,
    "geocoded": true,
    "rating": 5.0,
    "reviewCount": 48
  },
  {
    "name": "Pharmacie Arzak",
    "address": "Pharmacie Arzak, Kenitra, Morocco",
    "city": "Kenitra",
    "phone": "05 37 39 14 16",
    "page_number": 12,
    "source_url": "https://www.annuaire-gratuit.ma/recherche/pharmacies-ville-kénitra-pg12",
    "latitude": 34.2384964,
    "longitude": -6.5423585,
    "geocoded": true,
    "rating": 4.7,
    "reviewCount": 39
  },
  {
    "name": "Pharmacie Al Houda",
    "address": "Pharmacie Al Houda, Kenitra, Morocco",
    "city": "Kenitra",
    "phone": "05 37 36 77 32",
    "page_number": 12,
    "source_url": "https://www.annuaire-gratuit.ma/recherche/pharmacies-ville-kénitra-pg12",
    "latitude": 34.2270347,
    "longitude": -6.619919899999999,
    "geocoded": true,
    "rating": 5.0,
    "reviewCount": 22
  },
  {
    "name": "Pharmacie Al Mowatene",
    "address": "Pharmacie Al Mowatene, Kenitra, Morocco",
    "city": "Kenitra",
    "phone": "05 37 32 21 68",
    "page_number": 12,
    "source_url": "https://www.annuaire-gratuit.ma/recherche/pharmacies-ville-kénitra-pg12",
    "latitude": 34.2535324,
    "longitude": -6.6300801,
    "geocoded": true,
    "rating": 4.3,
    "reviewCount": 46
  },
  {
    "name": "Pharmacie Rochdi",
    "address": "Pharmacie Rochdi, Kenitra, Morocco",
    "city": "Kenitra",
    "phone": "05 37 39 56 56",
    "page_number": 12,
    "source_url": "https://www.annuaire-gratuit.ma/recherche/pharmacies-ville-kénitra-pg12",
    "latitude": 34.2515138,
    "longitude": -6.5823307,
    "geocoded": true,
    "rating": 4.4,
    "reviewCount": 44
  },
  {
    "name": "Pharmacie Takaddoum",
    "address": "Pharmacie Takaddoum, Kenitra, Morocco",
    "city": "Kenitra",
    "phone": "05 37 37 99 97",
    "page_number": 12,
    "source_url": "https://www.annuaire-gratuit.ma/recherche/pharmacies-ville-kénitra-pg12",
    "latitude": 34.2656066,
    "longitude": -6.5738734,
    "geocoded": true,
    "rating": 4.7,
    "reviewCount": 20
  },
  {
    "name": "Pharmacie ElHilal",
    "address": "Pharmacie ElHilal, Kénitra, Morocco",
    "city": "Kénitra",
    "phone": "05 37 38 66 71",
    "page_number": 12,
    "source_url": "https://www.annuaire-gratuit.ma/recherche/pharmacies-ville-kénitra-pg12",
    "latitude": 34.2490761,
    "longitude": -6.5415589,
    "geocoded": true,
    "rating": 4.3,
    "reviewCount": 10
  },
  {
    "name": "Pharmacie Bella",
    "address": "Pharmacie Bella, Kenitra, Morocco",
    "city": "Kenitra",
    "phone": "05 37 39 56 39",
    "page_number": 12,
    "source_url": "https://www.annuaire-gratuit.ma/recherche/pharmacies-ville-kénitra-pg12",
    "latitude": 34.2411625,
    "longitude": -6.570194499999999,
    "geocoded": true,
    "rating": 4.9,
    "reviewCount": 8
  },
  {
    "name": "Pharmacie Al Quods",
    "address": "Pharmacie Al Quods, Kenitra, Morocco",
    "city": "Kenitra",
    "phone": "05 37 35 11 30",
    "page_number": 12,
    "source_url": "https://www.annuaire-gratuit.ma/recherche/pharmacies-ville-kénitra-pg12",
    "latitude": 34.2625492,
    "longitude": -6.6173968,
    "geocoded": true,
    "rating": 4.0,
    "reviewCount": 45
  },
  {
    "name": "Pharmacie Chiadmi",
    "address": "Pharmacie Chiadmi, Kenitra, Morocco",
    "city": "Kenitra",
    "phone": "05 37 39 22 83",
    "page_number": 12,
    "source_url": "https://www.annuaire-gratuit.ma/recherche/pharmacies-ville-kénitra-pg12",
    "latitude": 34.2418872,
    "longitude": -6.537117500000001,
    "geocoded": true,
    "rating": 4.3,
    "reviewCount": 37
  },
  {
    "name": "Pharmacie Ibn Rochd",
    "address": "Pharmacie Ibn Rochd, Kenitra, Morocco",
    "city": "Kenitra",
    "phone": "",
    "page_number": 12,
    "source_url": "https://www.annuaire-gratuit.ma/recherche/pharmacies-ville-kénitra-pg12",
    "latitude": 34.2605015,
    "longitude": -6.567784199999999,
    "geocoded": true,
    "rating": 4.6,
    "reviewCount": 24
  },
  {
    "name": "Pharmacie Dallia",
    "address": "Pharmacie Dallia, Kenitra, Morocco",
    "city": "Kenitra",
    "phone": "05 37 36 17 27",
    "page_number": 12,
    "source_url": "https://www.annuaire-gratuit.ma/recherche/pharmacies-ville-kénitra-pg12",
    "latitude": 34.2434349,
    "longitude": -6.610360999999999,
    "geocoded": true,
    "rating": 4.7,
    "reviewCount": 27
  },
  {
    "name": "Pharmacie Mimosas",
    "address": "Pharmacie Mimosas, Kenitra, Morocco",
    "city": "Kenitra",
    "phone": "05 37 37 45 23",
    "page_number": 12,
    "source_url": "https://www.annuaire-gratuit.ma/recherche/pharmacies-ville-kénitra-pg12",
    "latitude": 34.2566688,
    "longitude": -6.5924302,
    "geocoded": true,
    "rating": 4.1,
    "reviewCount": 30
  },
  {
    "name": "Pharmacie Arzak",
    "address": "Pharmacie Arzak, Kenitra, Morocco",
    "city": "Kenitra",
    "phone": "05 37 39 14 16",
    "page_number": 12,
    "source_url": "https://www.annuaire-gratuit.ma/recherche/pharmacies-ville-kénitra-pg12",
    "latitude": 34.2384964,
    "longitude": -6.5423585,
    "geocoded": true,
    "rating": 4.0,
    "reviewCount": 1
  },
  {
    "name": "Pharmacie les Arceaux",
    "address": "Pharmacie les Arceaux, Salé, Morocco",
    "city": "Salé",
    "phone": "05 37 78 12 26",
    "page_number": 12,
    "source_url": "https://www.annuaire-gratuit.ma/recherche/pharmacies-ville-kénitra-pg12",
    "latitude": 34.0481169,
    "longitude": -6.816255,
    "geocoded": true,
    "rating": 4.0,
    "reviewCount": 12
  },
  {
    "name": "Pharmacie Sidi Abdellah",
    "address": "Pharmacie Sidi Abdellah, Sale, Morocco",
    "city": "Sale",
    "phone": "05 37 82 20 84",
    "page_number": 12,
    "source_url": "https://www.annuaire-gratuit.ma/recherche/pharmacies-ville-kénitra-pg12",
    "latitude": 34.0828069,
    "longitude": -6.7757485,
    "geocoded": true,
    "rating": 3.6,
    "reviewCount": 4
  },
  {
    "name": "Pharmacie De L 039 Hopital",
    "address": "Pharmacie De L 039 Hopital, Kenitra, Morocco",
    "city": "Kenitra",
    "phone": "05 37 38 10 37",
    "page_number": 12,
    "source_url": "https://www.annuaire-gratuit.ma/recherche/pharmacies-ville-kénitra-pg12",
    "latitude": 34.2538656,
    "longitude": -6.559079199999999,
    "geocoded": true,
    "rating": 3.6,
    "reviewCount": 17
  },
  {
    "name": "Pharmacie Jardin Exotique",
    "address": "Pharmacie Jardin Exotique, Salé, Morocco",
    "city": "Salé",
    "phone": "05 37 82 43 46",
    "page_number": 12,
    "source_url": "https://www.annuaire-gratuit.ma/recherche/pharmacies-ville-kénitra-pg12",
    "latitude": 34.2375967,
    "longitude": -6.637972299999999,
    "geocoded": true,
    "rating": 4.4,
    "reviewCount": 28
  },
  {
    "name": "Pharmacie Nour Al Irchad",
    "address": "Pharmacie Nour Al Irchad, Kenitra, Morocco",
    "city": "Kenitra",
    "phone": "05 38 89 02 40",
    "page_number": 12,
    "source_url": "https://www.annuaire-gratuit.ma/recherche/pharmacies-ville-kénitra-pg12",
    "latitude": 34.2373573,
    "longitude": -6.5567334,
    "geocoded": true,
    "rating": 4.6,
    "reviewCount": 31
  },
  {
    "name": "Pharmacie Arrohama",
    "address": "Pharmacie Arrohama, Kenitra, Morocco",
    "city": "Kenitra",
    "phone": "05 37 38 31 36",
    "page_number": 13,
    "source_url": "https://www.annuaire-gratuit.ma/recherche/pharmacies-ville-kénitra-pg13",
    "latitude": 34.234081,
    "longitude": -6.550457799999999,
    "geocoded": true,
    "rating": 4.7,
    "reviewCount": 17
  },
  {
    "name": "Pharmacie Tredano El Bakkali",
    "address": "Pharmacie Tredano El Bakkali, Kenitra, Morocco",
    "city": "Kenitra",
    "phone": "05 37 39 49 69",
    "page_number": 13,
    "source_url": "https://www.annuaire-gratuit.ma/recherche/pharmacies-ville-kénitra-pg13",
    "latitude": 34.2407379,
    "longitude": -6.6189958,
    "geocoded": true,
    "rating": 4.6,
    "reviewCount": 9
  },
  {
    "name": "Pharmacie des F.A.R",
    "address": "Pharmacie des F.A.R, Kenitra, Morocco",
    "city": "Kenitra",
    "phone": "05 37 37 42 00",
    "page_number": 13,
    "source_url": "https://www.annuaire-gratuit.ma/recherche/pharmacies-ville-kénitra-pg13",
    "latitude": 34.2542277,
    "longitude": -6.579398299999999,
    "geocoded": true,
    "rating": 4.8,
    "reviewCount": 34
  },
  {
    "name": "Pharmacie Ibn Baytar",
    "address": "Pharmacie Ibn Baytar, Kenitra, Morocco",
    "city": "Kenitra",
    "phone": "05 37 35 70 22",
    "page_number": 13,
    "source_url": "https://www.annuaire-gratuit.ma/recherche/pharmacies-ville-kénitra-pg13",
    "latitude": 34.2641695,
    "longitude": -6.6249826,
    "geocoded": true,
    "rating": 4.2,
    "reviewCount": 18
  },
  {
    "name": "Pharmacie De L 039 Atlas",
    "address": "Pharmacie De L 039 Atlas, Kenitra, Morocco",
    "city": "Kenitra",
    "phone": "05 37 35 34 66",
    "page_number": 13,
    "source_url": "https://www.annuaire-gratuit.ma/recherche/pharmacies-ville-kénitra-pg13",
    "latitude": 34.2407263,
    "longitude": -6.6544716,
    "geocoded": true,
    "rating": 4.4,
    "reviewCount": 5
  },
  {
    "name": "Pharmacie Bassine",
    "address": "Pharmacie Bassine, Kenitra, Morocco",
    "city": "Kenitra",
    "phone": "06 91 82 08 89",
    "page_number": 13,
    "source_url": "https://www.annuaire-gratuit.ma/recherche/pharmacies-ville-kénitra-pg13",
    "latitude": 34.2185251,
    "longitude": -6.6255672,
    "geocoded": true,
    "rating": 4.7,
    "reviewCount": 13
  },
  {
    "name": "Pharmacie Doha Assam",
    "address": "Pharmacie Doha Assam, Kenitra, Morocco",
    "city": "Kenitra",
    "phone": "05 37 32 16 76",
    "page_number": 13,
    "source_url": "https://www.annuaire-gratuit.ma/recherche/pharmacies-ville-kénitra-pg13",
    "latitude": 34.261,
    "longitude": -6.587,
    "geocoded": false,
    "rating": 0.0,
    "reviewCount": 0
  },
  {
    "name": "Pharmacie Doha Assam",
    "address": "Pharmacie Doha Assam, Kenitra, Morocco",
    "city": "Kenitra",
    "phone": "05 30 13 21 02",
    "page_number": 13,
    "source_url": "https://www.annuaire-gratuit.ma/recherche/pharmacies-ville-kénitra-pg13",
    "latitude": 34.261,
    "longitude": -6.587,
    "geocoded": false,
    "rating": 0.0,
    "reviewCount": 0
  },
  {
    "name": "Pharmacie Bir Rami Sud",
    "address": "Pharmacie Bir Rami Sud, Kenitra, Morocco",
    "city": "Kenitra",
    "phone": "05 37 37 86 07",
    "page_number": 13,
    "source_url": "https://www.annuaire-gratuit.ma/recherche/pharmacies-ville-kénitra-pg13",
    "latitude": 34.2342551,
    "longitude": -6.606600299999999,
    "geocoded": true,
    "rating": 4.0,
    "reviewCount": 17
  },
  {
    "name": "Pharmacie la Fôret",
    "address": "Pharmacie la Fôret, Kenitra, Morocco",
    "city": "Kenitra",
    "phone": "05 37 37 22 80",
    "page_number": 13,
    "source_url": "https://www.annuaire-gratuit.ma/recherche/pharmacies-ville-kénitra-pg13",
    "latitude": 34.2516907,
    "longitude": -6.574769,
    "geocoded": true,
    "rating": 4.3,
    "reviewCount": 48
  },
  {
    "name": "Pharmacie Firdaous",
    "address": "Pharmacie Firdaous, Kenitra, Morocco",
    "city": "Kenitra",
    "phone": "05 37 37 16 79",
    "page_number": 13,
    "source_url": "https://www.annuaire-gratuit.ma/recherche/pharmacies-ville-kénitra-pg13",
    "latitude": 34.2619968,
    "longitude": -6.5788693,
    "geocoded": true,
    "rating": 4.8,
    "reviewCount": 33
  },
  {
    "name": "Pharmacie Jalale",
    "address": "Pharmacie Jalale, Kenitra, Morocco",
    "city": "Kenitra",
    "phone": "05 37 35 86 43",
    "page_number": 13,
    "source_url": "https://www.annuaire-gratuit.ma/recherche/pharmacies-ville-kénitra-pg13",
    "latitude": 34.2719484,
    "longitude": -6.616952,
    "geocoded": true,
    "rating": 4.3,
    "reviewCount": 19
  },
  {
    "name": "Pharmacie Mohamed",
    "address": "Pharmacie Mohamed, Kenitra, Morocco",
    "city": "Kenitra",
    "phone": "05 37 37 35 73",
    "page_number": 13,
    "source_url": "https://www.annuaire-gratuit.ma/recherche/pharmacies-ville-kénitra-pg13",
    "latitude": 34.254047,
    "longitude": -6.5842192,
    "geocoded": true,
    "rating": 4.3,
    "reviewCount": 24
  },
  {
    "name": "Pharmacie Ramdani",
    "address": "Pharmacie Ramdani, Kenitra, Morocco",
    "city": "Kenitra",
    "phone": "05 26 07 77 78",
    "page_number": 13,
    "source_url": "https://www.annuaire-gratuit.ma/recherche/pharmacies-ville-kénitra-pg13",
    "latitude": 34.2238005,
    "longitude": -6.6212851,
    "geocoded": true,
    "rating": 5.0,
    "reviewCount": 33
  },
  {
    "name": "Pharmacie Badyine",
    "address": "Pharmacie Badyine, Kenitra, Morocco",
    "city": "Kenitra",
    "phone": "05 30 13 20 65",
    "page_number": 13,
    "source_url": "https://www.annuaire-gratuit.ma/recherche/pharmacies-ville-kénitra-pg13",
    "latitude": 34.2315289,
    "longitude": -6.617493,
    "geocoded": true,
    "rating": 4.3,
    "reviewCount": 32
  },
  {
    "name": "Pharmacie Ourida",
    "address": "Pharmacie Ourida, Kenitra, Morocco",
    "city": "Kenitra",
    "phone": "05 37 38 34 67",
    "page_number": 13,
    "source_url": "https://www.annuaire-gratuit.ma/recherche/pharmacies-ville-kénitra-pg13",
    "latitude": 34.26130029999999,
    "longitude": -6.5502315,
    "geocoded": true,
    "rating": 4.9,
    "reviewCount": 15
  },
  {
    "name": "Pharmacie Rochdi",
    "address": "Pharmacie Rochdi, Kenitra, Morocco",
    "city": "Kenitra",
    "phone": "05 37 36 04 04",
    "page_number": 13,
    "source_url": "https://www.annuaire-gratuit.ma/recherche/pharmacies-ville-kénitra-pg13",
    "latitude": 34.2515138,
    "longitude": -6.5823307,
    "geocoded": true,
    "rating": 4.4,
    "reviewCount": 35
  },
  {
    "name": "Pharmacie la Santé",
    "address": "Pharmacie la Santé, Kenitra, Morocco",
    "city": "Kenitra",
    "phone": "05 37 30 55 29",
    "page_number": 13,
    "source_url": "https://www.annuaire-gratuit.ma/recherche/pharmacies-ville-kénitra-pg13",
    "latitude": 34.2573859,
    "longitude": -6.616210799999999,
    "geocoded": true,
    "rating": 4.6,
    "reviewCount": 32
  },