[{"name": "Pharmacie la Cit\u00e9", "address": "Pharmacie la Cit\u00e9, Kenitra, Morocco", "city": "Kenitra", "phone": "05 37 37 90 71", "page_number": 1, "source_url": "https://www.annuaire-gratuit.ma/recherche/pharmacies-ville-k\u00e9nitra-pg1", "latitude": 34.2684897, "longitude": -6.593381399999999, "geocoded": true}, {"name": "Pharmacie Balsam", "address": "Pharmacie Balsam, Kenitra, Morocco", "city": "Kenitra", "phone": "05 37 39 17 13", "page_number": 1, "source_url": "https://www.annuaire-gratuit.ma/recherche/pharmacies-ville-k\u00e9nitra-pg1", "latitude": 34.2510495, "longitude": -6.5562209, "geocoded": true}, {"name": "Pharmacie Du March\u00e9 Central", "address": "Pharmacie Du March\u00e9 Central, Kenitra, Morocco", "city": "Kenitra", "phone": "05 37 37 10 54", "page_number": 1, "source_url": "https://www.annuaire-gratuit.ma/recherche/pharmacies-ville-k\u00e9nitra-pg1", "latitude": 34.2635122, "longitude": -6.5844355, "geocoded": true}, {"name": "Pharmacie Fadlallah", "address": "Pharmacie Fadlallah, Kenitra, Morocco", "city": "Kenitra", "phone": "05 37 38 33 28", "page_number": 1, "source_url": "https://www.annuaire-gratuit.ma/recherche/pharmacies-ville-k\u00e9nitra-pg1", "latitude": 34.2620434, "longitude": -6.5574981, "geocoded": true}, {"name": "Pharmacie Masjid Arrahma", "address": "Pharmacie Masjid Arrahma, Kenitra, Morocco", "city": "Kenitra", "phone": "05 37 35 57 00", "page_number": 1, "source_url": "https://www.annuaire-gratuit.ma/recherche/pharmacies-ville-k\u00e9nitra-pg1", "latitude": 34.2580944, "longitude": -6.619419799999999, "geocoded": true}, {"name": "Pharmacie Jama\u00e2 M'chich", "address": "Pharmacie Jama\u00e2 M'chich, Kenitra, Morocco", "city": "Kenitra", "phone": "06 51 83 77 69", "page_number": 1, "source_url": "https://www.annuaire-gratuit.ma/recherche/pharmacies-ville-k\u00e9nitra-pg1", "latitude": 34.2450361, "longitude": -6.5985004, "geocoded": true}, {"name": "Pharmacie Al Oumouma", "address": "Pharmacie Al Oumouma, Kenitra, Morocco", "city": "Kenitra", "phone": "05 37 38 35 32", "page_number": 1, "source_url": "https://www.annuaire-gratuit.ma/recherche/pharmacies-ville-k\u00e9nitra-pg1", "latitude": 34.2402561, "longitude": -6.556906000000001, "geocoded": true}, {"name": "Pharmacie Loudiyi", "address": "Pharmacie Loudiyi, Kenitra, Morocco", "city": "Kenitra", "phone": "05 37 39 14 13", "page_number": 1, "source_url": "https://www.annuaire-gratuit.ma/recherche/pharmacies-ville-k\u00e9nitra-pg1", "latitude": 34.26130029999999, "longitude": -6.5502315, "geocoded": true}, {"name": "Pharmacie Alhamdolilah", "address": "Pharmacie Alhamdolilah, Kenitra, Morocco", "city": "Kenitra", "phone": "05 37 39 18 77", "page_number": 1, "source_url": "https://www.annuaire-gratuit.ma/recherche/pharmacies-ville-k\u00e9nitra-pg1", "latitude": 34.2523509, "longitude": -6.5250888, "geocoded": true}, {"name": "Pharmacie Ammour", "address": "Pharmacie Ammour, Kenitra, Morocco", "city": "Kenitra", "phone": "", "page_number": 1, "source_url": "https://www.annuaire-gratuit.ma/recherche/pharmacies-ville-k\u00e9nitra-pg1", "latitude": 34.2452129, "longitude": -6.539546199999999, "geocoded": true}, {"name": "Pharmacie Elhouria", "address": "Pharmacie Elhouria, Kenitra, Morocco", "city": "Kenitra", "phone": "05 37 37 35 90", "page_number": 1, "source_url": "https://www.annuaire-gratuit.ma/recherche/pharmacies-ville-k\u00e9nitra-pg1", "latitude": 34.2600693, "longitude": -6.564646199999999, "geocoded": true}, {"name": "Pharmacie les Iris", "address": "Pharmacie les Iris, Kenitra, Morocco", "city": "Kenitra", "phone": "05 37 35 17 18", "page_number": 1, "source_url": "https://www.annuaire-gratuit.ma/recherche/pharmacies-ville-k\u00e9nitra-pg1", "latitude": 34.2723002, "longitude": -6.6137427, "geocoded": true}, {"name": "Pharmacie ElAmal", "address": "Pharmacie ElAmal, Kenitra, Morocco", "city": "Kenitra", "phone": "05 37 38 04 19", "page_number": 1, "source_url": "https://www.annuaire-gratuit.ma/recherche/pharmacies-ville-k\u00e9nitra-pg1", "latitude": 34.2495039, "longitude": -6.550052399999999, "geocoded": true}, {"name": "Pharmacie Saknia", "address": "Pharmacie Saknia, Kenitra, Morocco", "city": "Kenitra", "phone": "05 37 38 00 34", "page_number": 1, "source_url": "https://www.annuaire-gratuit.ma/recherche/pharmacies-ville-k\u00e9nitra-pg1", "latitude": 34.2458279, "longitude": -6.5475186, "geocoded": true}, {"name": "Pharmacie Laila Chiadmi", "address": "Pharmacie Laila Chiadmi, Kenitra, Morocco", "city": "Kenitra", "phone": "05 37 39 22 83", "page_number": 1, "source_url": "https://www.annuaire-gratuit.ma/recherche/pharmacies-ville-k\u00e9nitra-pg1", "latitude": 34.2418872, "longitude": -6.537117500000001, "geocoded": true}, {"name": "Pharmacie Al Manar", "address": "Pharmacie Al Manar, Kenitra, Morocco", "city": "Kenitra", "phone": "05 37 39 50 33", "page_number": 1, "source_url": "https://www.annuaire-gratuit.ma/recherche/pharmacies-ville-k\u00e9nitra-pg1", "latitude": 34.2443439, "longitude": -6.6169077, "geocoded": true}, {"name": "Pharmacie Al Ghofrane", "address": "Pharmacie Al Ghofrane, Kenitra, Morocco", "city": "Kenitra", "phone": "06 30 73 43 70", "page_number": 1, "source_url": "https://www.annuaire-gratuit.ma/recherche/pharmacies-ville-k\u00e9nitra-pg1", "latitude": 34.2331786, "longitude": -6.546418999999999, "geocoded": true}, {"name": "Pharmacie Alhamdolilah", "address": "Pharmacie Alhamdolilah, Kenitra, Morocco", "city": "Kenitra", "phone": "05 37 39 18 77", "page_number": 1, "source_url": "https://www.annuaire-gratuit.ma/recherche/pharmacies-ville-k\u00e9nitra-pg1", "latitude": 34.2523509, "longitude": -6.5250888, "geocoded": true}, {"name": "Pharmacie Al Yossr Alliance", "address": "Pharmacie Al Yossr Alliance, Kenitra, Morocco", "city": "Kenitra", "phone": "05 37 33 81 94", "page_number": 2, "source_url": "https://www.annuaire-gratuit.ma/recherche/pharmacies-ville-k\u00e9nitra-pg2", "latitude": 34.2439669, "longitude": -6.649275599999999, "geocoded": true}, {"name": "Pharmacie Sidi Larbi Boujema\u00e2", "address": "Pharmacie Sidi Larbi Boujema\u00e2, Kenitra, Morocco", "city": "Kenitra", "phone": "05 37 36 48 98", "page_number": 2, "source_url": "https://www.annuaire-gratuit.ma/recherche/pharmacies-ville-k\u00e9nitra-pg2", "latitude": 34.2631714, "longitude": -6.5741429, "geocoded": true}, {"name": "Pharmacie El Mssalla", "address": "Pharmacie El Mssalla, Kenitra, Morocco", "city": "Kenitra", "phone": "06 61 09 71 24", "page_number": 2, "source_url": "https://www.annuaire-gratuit.ma/recherche/pharmacies-ville-k\u00e9nitra-pg2", "latitude": 34.2518397, "longitude": -6.5632, "geocoded": true}, {"name": "Pharmacie Chark Al Madina", "address": "Pharmacie Chark Al Madina, Kenitra, Morocco", "city": "Kenitra", "phone": "06 08 55 61 41", "page_number": 2, "source_url": "https://www.annuaire-gratuit.ma/recherche/pharmacies-ville-k\u00e9nitra-pg2", "latitude": 34.2253202, "longitude": -6.536640900000001, "geocoded": true}, {"name": "Pharmacie Nour Sale Ex Himmich", "address": "Pharmacie Nour Sale Ex Himmich, Sale, Morocco", "city": "Sale", "phone": "05 37 88 07 17", "page_number": 2, "source_url": "https://www.annuaire-gratuit.ma/recherche/pharmacies-ville-k\u00e9nitra-pg2", "latitude": 34.051503, "longitude": -6.812950799999999, "geocoded": true}, {"name": "Pharmacie Farazdaq", "address": "Pharmacie Farazdaq, Kenitra, Morocco", "city": "Kenitra", "phone": "", "page_number": 2, "source_url": "https://www.annuaire-gratuit.ma/recherche/pharmacies-ville-k\u00e9nitra-pg2", "latitude": 34.2566894, "longitude": -6.6222064, "geocoded": true}, {"name": "Pharmacie El Bahaa", "address": "Pharmacie El Bahaa, Kenitra, Morocco", "city": "Kenitra", "phone": "06 11 75 98 72", "page_number": 2, "source_url": "https://www.annuaire-gratuit.ma/recherche/pharmacies-ville-k\u00e9nitra-pg2", "latitude": 34.2351448, "longitude": -6.6190959, "geocoded": true}, {"name": "Pharmacie Elhouria", "address": "Pharmacie Elhouria, Kenitra, Morocco", "city": "Kenitra", "phone": "05 37 37 35 90", "page_number": 2, "source_url": "https://www.annuaire-gratuit.ma/recherche/pharmacies-ville-k\u00e9nitra-pg2", "latitude": 34.2600693, "longitude": -6.564646199999999, "geocoded": true}, {"name": "Pharmacie Omnia", "address": "Pharmacie Omnia, Kenitra, Morocco", "city": "Kenitra", "phone": "05 37 31 54 35", "page_number": 2, "source_url": "https://www.annuaire-gratuit.ma/recherche/pharmacies-ville-k\u00e9nitra-pg2", "latitude": 34.2281203, "longitude": -6.550136800000001, "geocoded": true}, {"name": "Pharmacie Laila", "address": "Pharmacie Laila, Kenitra, Morocco", "city": "Kenitra", "phone": "05 37 35 37 13", "page_number": 2, "source_url": "https://www.annuaire-gratuit.ma/recherche/pharmacies-ville-k\u00e9nitra-pg2", "latitude": 34.2506361, "longitude": -6.623107, "geocoded": true}, {"name": "Pharmacie Al Manal", "address": "Pharmacie Al Manal, Kenitra, Morocco", "city": "Kenitra", "phone": "05 37 35 09 21", "page_number": 2, "source_url": "https://www.annuaire-gratuit.ma/recherche/pharmacies-ville-k\u00e9nitra-pg2", "latitude": 34.2443439, "longitude": -6.6169077, "geocoded": true}, {"name": "Pharmacie de la Mosqu\u00e9e", "address": "Pharmacie de la Mosqu\u00e9e, Kenitra, Morocco", "city": "Kenitra", "phone": "05 37 38 07 05", "page_number": 2, "source_url": "https://www.annuaire-gratuit.ma/recherche/pharmacies-ville-k\u00e9nitra-pg2", "latitude": 34.2515784, "longitude": -6.5467645, "geocoded": true}, {"name": "Pharmacie Badr", "address": "Pharmacie Badr, Kenitra, Morocco", "city": "Kenitra", "phone": "05 37 38 01 41", "page_number": 2, "source_url": "https://www.annuaire-gratuit.ma/recherche/pharmacies-ville-k\u00e9nitra-pg2", "latitude": 34.2486767, "longitude": -6.5551154, "geocoded": true}, {"name": "Pharmacie Al Firdaous", "address": "Pharmacie Al Firdaous, Sale, Morocco", "city": "Sale", "phone": "05 37 87 88 19", "page_number": 2, "source_url": "https://www.annuaire-gratuit.ma/recherche/pharmacies-ville-k\u00e9nitra-pg2", "latitude": 34.2619968, "longitude": -6.5788693, "geocoded": true}, {"name": "Pharmacie Shems", "address": "Pharmacie Shems, Kenitra, Morocco", "city": "Kenitra", "phone": "05 37 35 18 16", "page_number": 2, "source_url": "https://www.annuaire-gratuit.ma/recherche/pharmacies-ville-k\u00e9nitra-pg2", "latitude": 34.2530399, "longitude": -6.6194979, "geocoded": true}, {"name": "Pharmacie Tiddas", "address": "Pharmacie Tiddas, Kenitra, Morocco", "city": "Kenitra", "phone": "05 37 35 09 21", "page_number": 2, "source_url": "https://www.annuaire-gratuit.ma/recherche/pharmacies-ville-k\u00e9nitra-pg2", "latitude": 34.2598688, "longitude": -6.6121306, "geocoded": true}, {"name": "Pharmacie Assafae", "address": "Pharmacie Assafae, Kenitra, Morocco", "city": "Kenitra", "phone": "05 37 39 10 44", "page_number": 2, "source_url": "https://www.annuaire-gratuit.ma/recherche/pharmacies-ville-k\u00e9nitra-pg2", "latitude": 34.2442824, "longitude": -6.5450517, "geocoded": true}, {"name": "Pharmacie Yaacoub", "address": "Pharmacie Yaacoub, Kenitra, Morocco", "city": "Kenitra", "phone": "05 37 39 17 94", "page_number": 2, "source_url": "https://www.annuaire-gratuit.ma/recherche/pharmacies-ville-k\u00e9nitra-pg2", "latitude": 34.2461537, "longitude": -6.5418898, "geocoded": true}, {"name": "La Grande Pharmacie", "address": "La Grande Pharmacie, Kenitra, Morocco", "city": "Kenitra", "phone": "05 37 37 10 46", "page_number": 2, "source_url": "https://www.annuaire-gratuit.ma/recherche/pharmacies-ville-k\u00e9nitra-pg2", "latitude": 34.2608282, "longitude": -6.5853727, "geocoded": true}, {"name": "Pharmacie Elmassira", "address": "Pharmacie Elmassira, Kenitra, Morocco", "city": "Kenitra", "phone": "05 37 38 06 27", "page_number": 2, "source_url": "https://www.annuaire-gratuit.ma/recherche/pharmacies-ville-k\u00e9nitra-pg2", "latitude": 34.2518899, "longitude": -6.550200299999999, "geocoded": true}, {"name": "Pharmacie Bella", "address": "Pharmacie Bella, Kenitra, Morocco", "city": "Kenitra", "phone": "05 37 39 56 39", "page_number": 3, "source_url": "https://www.annuaire-gratuit.ma/recherche/pharmacies-ville-k\u00e9nitra-pg3", "latitude": 34.2411625, "longitude": -6.570194499999999, "geocoded": true}, {"name": "Pharmacie Saoumaa", "address": "Pharmacie Saoumaa, Kenitra, Morocco", "city": "Kenitra", "phone": "", "page_number": 3, "source_url": "https://www.annuaire-gratuit.ma/recherche/pharmacies-ville-k\u00e9nitra-pg3", "latitude": 34.2509216, "longitude": -6.608965700000001, "geocoded": true}, {"name": "Pharmacie Riad", "address": "Pharmacie Riad, Kenitra, Morocco", "city": "Kenitra", "phone": "05 37 36 29 72", "page_number": 3, "source_url": "https://www.annuaire-gratuit.ma/recherche/pharmacies-ville-k\u00e9nitra-pg3", "latitude": 34.2654271, "longitude": -6.5616965, "geocoded": true}, {"name": "Pharmacie Amine", "address": "Pharmacie Amine, Kenitra, Morocco", "city": "Kenitra", "phone": "06 65 30 63 88", "page_number": 3, "source_url": "https://www.annuaire-gratuit.ma/recherche/pharmacies-ville-k\u00e9nitra-pg3", "latitude": 34.2432048, "longitude": -6.6131873, "geocoded": true}, {"name": "Pharmacie la Fontaine - Ennafoura", "address": "Pharmacie la Fontaine - Ennafoura, Kenitra, Morocco", "city": "Kenitra", "phone": "05 37 37 32 81", "page_number": 3, "source_url": "https://www.annuaire-gratuit.ma/recherche/pharmacies-ville-k\u00e9nitra-pg3", "latitude": 34.2598933, "longitude": -6.5833537, "geocoded": true}, {"name": "Pharmacie Principale", "address": "Pharmacie Principale, Kenitra, Morocco", "city": "Kenitra", "phone": "05 37 36 35 03", "page_number": 3, "source_url": "https://www.annuaire-gratuit.ma/recherche/pharmacies-ville-k\u00e9nitra-pg3", "latitude": 34.2639769, "longitude": -6.5682034, "geocoded": true}, {"name": "Pharmacie Lotissement El Assam", "address": "Pharmacie Lotissement El Assam, Kenitra, Morocco", "city": "Kenitra", "phone": "06 96 53 86 64", "page_number": 3, "source_url": "https://www.annuaire-gratuit.ma/recherche/pharmacies-ville-k\u00e9nitra-pg3", "latitude": 34.2866652, "longitude": -6.537014099999999, "geocoded": true}, {"name": "Pharmacie Ma\u00e2mora", "address": "Pharmacie Ma\u00e2mora, Kenitra, Morocco", "city": "Kenitra", "phone": "05 37 37 64 47", "page_number": 3, "source_url": "https://www.annuaire-gratuit.ma/recherche/pharmacies-ville-k\u00e9nitra-pg3", "latitude": 34.2564289, "longitude": -6.5862807, "geocoded": true}, {"name": "Pharmacie El Felline", "address": "Pharmacie El Felline, Kenitra, Morocco", "city": "Kenitra", "phone": "06 38 81 48 67", "page_number": 3, "source_url": "https://www.annuaire-gratuit.ma/recherche/pharmacies-ville-k\u00e9nitra-pg3", "latitude": 34.229453, "longitude": -6.614066900000001, "geocoded": true}, {"name": "Pharmacie Venezia", "address": "Pharmacie Venezia, Kenitra, Morocco", "city": "Kenitra", "phone": "05 37 35 50 65", "page_number": 3, "source_url": "https://www.annuaire-gratuit.ma/recherche/pharmacies-ville-k\u00e9nitra-pg3", "latitude": 34.2754392, "longitude": -6.604282, "geocoded": true}, {"name": "Pharmacie Ezzahra", "address": "Pharmacie Ezzahra, Kenitra, Morocco", "city": "Kenitra", "phone": "05 37 35 50 71", "page_number": 3, "source_url": "https://www.annuaire-gratuit.ma/recherche/pharmacies-ville-k\u00e9nitra-pg3", "latitude": 34.2503433, "longitude": -6.6203181, "geocoded": true}, {"name": "Pharmacie de l'h\u00f4pital", "address": "Pharmacie de l'h\u00f4pital, Kenitra, Morocco", "city": "Kenitra", "phone": "05 37 38 10 37", "page_number": 3, "source_url": "https://www.annuaire-gratuit.ma/recherche/pharmacies-ville-k\u00e9nitra-pg3", "latitude": 34.2538656, "longitude": -6.559079199999999, "geocoded": true}]