[{"name": "Pharmacie Choukro Allah", "phone": "0537290543", "address": "Pharmacie Choukro Allah, Rabat, Morocco", "city": "Rabat", "geocoded": true, "latitude": 33.98765789999999, "longitude": -6.8732624}, {"name": "Pharmacie Essalam", "phone": "0537691455", "address": "Pharmacie Essalam, Rabat, Morocco", "city": "Rabat", "geocoded": true, "latitude": 33.9985028, "longitude": -6.869947199999999}, {"name": "Pharmacie Cedre", "phone": "0537655541", "address": "Pharmacie Cedre, Rabat, Morocco", "city": "Rabat", "geocoded": true, "latitude": 33.9984228, "longitude": -6.819653199999999}, {"name": "Pharmacie Mega Mall", "phone": "0537639371", "address": "Pharmacie Mega Mall, Rabat, Morocco", "city": "Rabat", "geocoded": true, "latitude": 33.96776500000001, "longitude": -6.830111}, {"name": "Pharmacie Al Kifah", "phone": "0537796856", "address": "Pharmacie Al Kifah, Rabat, Morocco", "city": "Rabat", "geocoded": true, "latitude": 33.9906681, "longitude": -6.8716952}, {"name": "Pharmacie L 039 Orangeraie Du Souissi", "phone": "0537650591", "address": "Pharmacie L 039 Orangeraie Du Souissi, Rabat, Morocco", "city": "Rabat", "geocoded": true, "latitude": 33.9488485, "longitude": -6.8483443}, {"name": "Pharmacie AlKhair", "phone": "0537695243", "address": "Pharmacie AlKhair, Rabat, Morocco", "city": "Rabat", "geocoded": true, "latitude": 33.9961422, "longitude": -6.875203699999999}, {"name": "Pharmacie Bab Jdid", "phone": "0537726227", "address": "Pharmacie Bab Jdid, Rabat, Morocco", "city": "Rabat", "geocoded": true, "latitude": 31.6259691, "longitude": -8.0019192}, {"name": "Pharmacie Doum", "phone": "0537658745", "address": "Pharmacie Doum, Rabat, Morocco", "city": "Rabat", "geocoded": true, "latitude": 33.9988096, "longitude": -6.8125718}, {"name": "Pharmacie Riad Al Otor", "phone": "0537715013", "address": "Pharmacie Riad Al Otor, Rabat, Morocco", "city": "Rabat", "geocoded": true, "latitude": 33.9622728, "longitude": -6.877206999999999}, {"name": "Pharmacie Abdelkrim El Khatabi", "phone": "0537203881", "address": "Pharmacie Abdelkrim El Khatabi, Rabat, Morocco", "city": "Rabat", "geocoded": true, "latitude": 34.0213232, "longitude": -6.852597299999999}, {"name": "Pharmacie Madagascar", "phone": "0537732210", "address": "Pharmacie Madagascar, Rabat, Morocco", "city": "Rabat", "geocoded": true, "latitude": 34.01248959999999, "longitude": -6.851193899999999}, {"name": "Pharmacie Du Bou Regreg", "phone": "0537653588", "address": "Pharmacie Du Bou Regreg, Rabat, Morocco", "city": "Rabat", "geocoded": true, "latitude": 34.0006968, "longitude": -6.8151822}, {"name": "Pharmacie L'etoile", "phone": "0537671414", "address": "Pharmacie L'etoile, Rabat, Morocco", "city": "Rabat", "geocoded": true, "latitude": 33.9899957, "longitude": -6.8540532}, {"name": "Pharmacie Ya Sin", "phone": "0537754008", "address": "Pharmacie Ya Sin, Rabat, Morocco", "city": "Rabat", "geocoded": true, "latitude": 33.9726844, "longitude": -6.8203933}, {"name": "Pharmacie Badr", "phone": "0537773462", "address": "Pharmacie Badr, Rabat, Morocco", "city": "Rabat", "geocoded": true, "latitude": 34.0038081, "longitude": -6.8516051}, {"name": "Pharmacie de la m\u00e9dina", "phone": "0537727062", "address": "Pharmacie de la m\u00e9dina, Rabat, Morocco", "city": "Rabat", "geocoded": true, "latitude": 34.0255727, "longitude": -6.833885599999999}, {"name": "Pharmacie Normale", "phone": "0537707765", "address": "Pharmacie Normale, Rabat, Morocco", "city": "Rabat", "geocoded": true, "latitude": 34.0199535, "longitude": -6.8351636}, {"name": "Pharmacie Du Cedre", "phone": "0537655541", "address": "Pharmacie Du Cedre, Rabat, Morocco", "city": "Rabat", "geocoded": true, "latitude": 33.9984228, "longitude": -6.819653199999999}, {"name": "Pharmacie Yamina", "phone": "0537756975", "address": "Pharmacie Yamina, Rabat, Morocco", "city": "Rabat", "geocoded": true, "latitude": 33.9592091, "longitude": -6.823982399999999}, {"name": "Pharmacie El Oumnia", "phone": "0537657325", "address": "Pharmacie El Oumnia, Rabat, Morocco", "city": "Rabat", "geocoded": true, "latitude": 33.9951815, "longitude": -6.827198999999999}, {"name": "Pharmacie Ambassador", "phone": "0537751565", "address": "Pharmacie Ambassador, Rabat, Morocco", "city": "Rabat", "geocoded": true, "latitude": 33.9600643, "longitude": -6.819579}, {"name": "Pharmacie l'Oasis", "phone": "0537682503", "address": "Pharmacie l'Oasis, Rabat, Morocco", "city": "Rabat", "geocoded": true, "latitude": 34.0101842, "longitude": -6.8436192}, {"name": "Pharmacie Fadesa", "phone": "0537756113", "address": "Pharmacie Fadesa, Rabat, Morocco", "city": "Rabat", "geocoded": true, "latitude": 33.9866857, "longitude": -6.807953500000001}, {"name": "Pharmacie Abdelkrim El Khattabi", "phone": "0537203881", "address": "Pharmacie Abdelkrim El Khattabi, Rabat, Morocco", "city": "Rabat", "geocoded": true, "latitude": 34.0213232, "longitude": -6.852597299999999}, {"name": "Pharmacie Naim", "phone": "0534197823", "address": "Pharmacie Naim, Rabat, Morocco", "city": "Rabat", "geocoded": true, "latitude": 33.9889084, "longitude": -6.8780936}, {"name": "Pharmacie Ibn Zohr", "phone": "0537695523", "address": "Pharmacie Ibn Zohr, Rabat, Morocco", "city": "Rabat", "geocoded": true, "latitude": 33.9915287, "longitude": -6.8680935}, {"name": "Pharmacie Arrayhane", "phone": "0537714676", "address": "Pharmacie Arrayhane, Rabat, Morocco", "city": "Rabat", "geocoded": true, "latitude": 33.9541706, "longitude": -6.8610453}, {"name": "Pharmacie Rennaissance", "phone": "0537722422", "address": "Pharmacie Rennaissance, Rabat, Morocco", "city": "Rabat", "geocoded": true, "latitude": 34.0202092, "longitude": -6.837212}, {"name": "Pharmacie El Manzeh", "phone": "0537281122", "address": "Pharmacie El Manzeh, Rabat, Morocco", "city": "Rabat", "geocoded": true, "latitude": 33.9754763, "longitude": -6.889227099999999}, {"name": "Pharmacie L'avenir", "phone": "0537798871", "address": "Pharmacie L'avenir, Rabat, Morocco", "city": "Rabat", "geocoded": true, "latitude": 33.9712059, "longitude": -6.886059899999999}, {"name": "Pharmacie Les Terrasses Dar Essalam", "phone": "0530319856", "address": "Pharmacie Les Terrasses Dar Essalam, Rabat, Morocco", "city": "Rabat", "geocoded": true, "latitude": 33.9512162, "longitude": -6.8360103}, {"name": "Pharmacie Al Oum", "phone": "0537291245", "address": "Pharmacie Al Oum, Rabat, Morocco", "city": "Rabat", "geocoded": true, "latitude": 33.9839545, "longitude": -6.888582}, {"name": "Pharmacie du Minaret", "phone": "0537726495", "address": "Pharmacie du Minaret, Rabat, Morocco", "city": "Rabat", "geocoded": true, "latitude": 34.0140071, "longitude": -6.8480656}, {"name": "Pharmacie Sahbi", "phone": "0537698488", "address": "Pharmacie Sahbi, Rabat, Morocco", "city": "Rabat", "geocoded": true, "latitude": 33.9925698, "longitude": -6.8818687}, {"name": "Pharmacie Bouitat", "phone": "0537290867", "address": "Pharmacie Bouitat, Rabat, Morocco", "city": "Rabat", "geocoded": true, "latitude": 33.9865395, "longitude": -6.879621999999999}, {"name": "Pharmacie Assounah", "phone": "0537765995", "address": "Pharmacie Assounah, Rabat, Morocco", "city": "Rabat", "geocoded": true, "latitude": 34.0112796, "longitude": -6.8291058}, {"name": "Pharmacie les Almohades", "phone": "0537206888", "address": "Pharmacie les Almohades, Rabat, Morocco", "city": "Rabat", "geocoded": true, "latitude": 34.020826, "longitude": -6.8244289}, {"name": "Pharmacie Michlifen", "phone": "0537675354", "address": "Pharmacie Michlifen, Rabat, Morocco", "city": "Rabat", "geocoded": true, "latitude": 33.9947863, "longitude": -6.8507699}, {"name": "Pharmacie Attine", "phone": "0537281284", "address": "Pharmacie Attine, Rabat, Morocco", "city": "Rabat", "geocoded": true, "latitude": 33.9773335, "longitude": -6.8892555}, {"name": "Pharmacie Secteur 15", "phone": "0530026815", "address": "Pharmacie Secteur 15, Rabat, Morocco", "city": "Rabat", "geocoded": true, "latitude": 33.9522749, "longitude": -6.878533}, {"name": "Pharmacie Abdelkrim ElKhattabi", "phone": "0537203881", "address": "Pharmacie Abdelkrim ElKhattabi, Rabat, Morocco", "city": "Rabat", "geocoded": true, "latitude": 34.0213232, "longitude": -6.852597299999999}, {"name": "Pharmacie Mazhar", "phone": "0537794666", "address": "Pharmacie Mazhar, Rabat, Morocco", "city": "Rabat", "geocoded": true, "latitude": 33.9753996, "longitude": -6.882336599999999}, {"name": "Pharmacie Fatima Zahraa", "phone": "0537758973", "address": "Pharmacie Fatima Zahraa, Rabat, Morocco", "city": "Rabat", "geocoded": true, "latitude": 33.9914968, "longitude": -6.812063600000001}, {"name": "Pharmacie Fadesa", "phone": "0537756113", "address": "Pharmacie Fadesa, Rabat, Morocco", "city": "Rabat", "geocoded": true, "latitude": 33.9866857, "longitude": -6.807953500000001}, {"name": "Parapharmacie Didoucha - Rabat", "phone": "+212 610-372623", "address": "Parapharmacie Didoucha - Rabat, Rabat, Morocco", "city": "Rabat", "geocoded": true, "latitude": 34.0256723, "longitude": -6.8451963}, {"name": "Pharmacie Zahra", "phone": "0537708103", "address": "Pharmacie Zahra, Rabat, Morocco", "city": "Rabat", "geocoded": true, "latitude": 34.017466, "longitude": -6.8349699}, {"name": "Pharmacie Lotus", "phone": "0537281883", "address": "Pharmacie Lotus, Rabat, Morocco", "city": "Rabat", "geocoded": true, "latitude": 33.9794682, "longitude": -6.8956211}, {"name": "Pharmacie Marjane", "phone": "0537701663", "address": "Pharmacie Marjane, Rabat, Morocco", "city": "Rabat", "geocoded": true, "latitude": 33.9542057, "longitude": -6.852440199999999}, {"name": "Pharmacie Salsabil", "phone": "0537712303", "address": "Pharmacie Salsabil, Rabat, Morocco", "city": "Rabat", "geocoded": true, "latitude": 33.9629748, "longitude": -6.8607111}, {"name": "Pharmacie l'Orchid\u00e9e", "phone": "0537716381", "address": "Pharmacie l'Orchid\u00e9e, Rabat, Morocco", "city": "Rabat", "geocoded": true, "latitude": 33.9483371, "longitude": -6.8690997}, {"name": "Pharmacie Mosquee O L M", "phone": "0537638119", "address": "Pharmacie Mosquee O L M, Rabat, Morocco", "city": "Rabat", "geocoded": true, "latitude": 33.9916457, "longitude": -6.828787699999999}, {"name": "Parapharmacie la Jeunesse", "phone": "0537779994", "address": "Parapharmacie la Jeunesse, Rabat, Morocco", "city": "Rabat", "geocoded": true, "latitude": 33.9971228, "longitude": -6.8592556}, {"name": "Pharmacie Nahim", "phone": "0537691693", "address": "Pharmacie Nahim, Rabat, Morocco", "city": "Rabat", "geocoded": true, "latitude": 33.9944651, "longitude": -6.8696573}, {"name": "Pharmacie Al Intilak", "phone": "0537295377", "address": "Pharmacie Al Intilak, Rabat, Morocco", "city": "Rabat", "geocoded": true, "latitude": 34.0043261, "longitude": -6.855659699999999}, {"name": "Pharmacie Bin El Ouidane", "phone": "0537772478", "address": "Pharmacie Bin El Ouidane, Rabat, Morocco", "city": "Rabat", "geocoded": true, "latitude": 34.0066555, "longitude": -6.8507833}, {"name": "Pharmacie Alwaha", "phone": "0537639525", "address": "Pharmacie Alwaha, Rabat, Morocco", "city": "Rabat", "geocoded": true, "latitude": 33.9757064, "longitude": -6.8222301}, {"name": "Pharmacie Ideal", "phone": "0537795934", "address": "Pharmacie Ideal, Rabat, Morocco", "city": "Rabat", "geocoded": true, "latitude": 34.0043261, "longitude": -6.855659699999999}, {"name": "Pharmacie Zina", "phone": "0537758899", "address": "Pharmacie Zina, Rabat, Morocco", "city": "Rabat", "geocoded": true, "latitude": 33.9671881, "longitude": -6.848449}, {"name": "Pharmacie Napoli", "phone": "0537720859", "address": "Pharmacie Napoli, Rabat, Morocco", "city": "Rabat", "geocoded": true, "latitude": 34.0239948, "longitude": -6.8486065}, {"name": "Pharmacie Aloe Vera", "phone": "0537293647", "address": "Pharmacie Aloe Vera, Rabat, Morocco", "city": "Rabat", "geocoded": true, "latitude": 33.9732614, "longitude": -6.8874131}, {"name": "Pharmacie Hay Chabab", "phone": "0537692902", "address": "Pharmacie Hay Chabab, Rabat, Morocco", "city": "Rabat", "geocoded": true, "latitude": 33.9957254, "longitude": -6.865752499999999}, {"name": "Pharmacie des Nations Unies", "phone": "0537670719", "address": "Pharmacie des Nations Unies, Rabat, Morocco", "city": "Rabat", "geocoded": true, "latitude": 33.99576589999999, "longitude": -6.8456791}, {"name": "Pharmacie Elkamra", "phone": "0537295141", "address": "Pharmacie Elkamra, Rabat, Morocco", "city": "Rabat", "geocoded": true, "latitude": 33.9966791, "longitude": -6.8683055}, {"name": "Pharmacie Zahra", "phone": "0537708103", "address": "Pharmacie Zahra, Rabat, Morocco", "city": "Rabat", "geocoded": true, "latitude": 34.017466, "longitude": -6.8349699}, {"name": "Pharmacie El Wafae", "phone": "0537653589", "address": "Pharmacie El Wafae, Rabat, Morocco", "city": "Rabat", "geocoded": true, "latitude": 33.9854985, "longitude": -6.823240299999999}, {"name": "Pharmacie ElAmine", "phone": "0537726932", "address": "Pharmacie ElAmine, Rabat, Morocco", "city": "Rabat", "geocoded": true, "latitude": 34.017348, "longitude": -6.8448249}, {"name": "Pharmacie Almassira", "phone": "0537795061", "address": "Pharmacie Almassira, Rabat, Morocco", "city": "Rabat", "geocoded": true, "latitude": 33.973265, "longitude": -6.8912384}, {"name": "Pharmacie L 039 Oasis", "phone": "0537682503", "address": "Pharmacie L 039 Oasis, Rabat, Morocco", "city": "Rabat", "geocoded": true, "latitude": 34.0101842, "longitude": -6.8436192}, {"name": "Pharmacie Yacoub El Mansour", "phone": "0537294841", "address": "Pharmacie Yacoub El Mansour, Rabat, Morocco", "city": "Rabat", "geocoded": true, "latitude": 33.9725909, "longitude": -6.883601899999999}, {"name": "Pharmacie Al Amane", "phone": "0537293647", "address": "Pharmacie Al Amane, Rabat, Morocco", "city": "Rabat", "geocoded": true, "latitude": 33.9732614, "longitude": -6.8874131}, {"name": "Pharmacie L 039 Etoile", "phone": "0537671414", "address": "Pharmacie L 039 Etoile, Rabat, Morocco", "city": "Rabat", "geocoded": true, "latitude": 33.9899957, "longitude": -6.8540532}, {"name": "Pharmacie Ibn Baytar", "phone": "0537794364", "address": "Pharmacie Ibn Baytar, Rabat, Morocco", "city": "Rabat", "geocoded": true, "latitude": 33.9836864, "longitude": -6.879224499999999}, {"name": "Pharmacie Al Fatih", "phone": "0537631690", "address": "Pharmacie Al Fatih, Rabat, Morocco", "city": "Rabat", "geocoded": true, "latitude": 33.9647902, "longitude": -6.9037928}, {"name": "Pharmacie Al Hikma", "phone": "0537293392", "address": "Pharmacie Al Hikma, Rabat, Morocco", "city": "Rabat", "geocoded": true, "latitude": 33.9708119, "longitude": -6.890788}, {"name": "Pharmacie Imam Malik", "phone": "0537295428", "address": "Pharmacie Imam Malik, Rabat, Morocco", "city": "Rabat", "geocoded": true, "latitude": 33.9921271, "longitude": -6.8746746}, {"name": "Pharmacie de la Tour Hassan", "phone": "0537720250", "address": "Pharmacie de la Tour Hassan, Rabat, Morocco", "city": "Rabat", "geocoded": true, "latitude": 34.017886, "longitude": -6.8291884}, {"name": "Pharmacie De L 039 Aviation", "phone": "0537631224", "address": "Pharmacie De L 039 Aviation, Rabat, Morocco", "city": "Rabat", "geocoded": true, "latitude": 33.9894888, "longitude": -6.8179196}, {"name": "Pharmacie El Manzeh Al Manal", "phone": "0537281122", "address": "Pharmacie El Manzeh Al Manal, Rabat, Morocco", "city": "Rabat", "geocoded": true, "latitude": 33.9754763, "longitude": -6.889227099999999}, {"name": "Pharmacie Zitoune", "phone": "0537712939", "address": "Pharmacie Zitoune, Rabat, Morocco", "city": "Rabat", "geocoded": true, "latitude": 33.961893, "longitude": -6.863644}, {"name": "Pharmacie Hay Al Kora", "phone": "0537299176", "address": "Pharmacie Hay Al Kora, Rabat, Morocco", "city": "Rabat", "geocoded": true, "latitude": 33.9962576, "longitude": -6.8779727}, {"name": "Pharmacie Bir Kacem", "phone": "0537658820", "address": "Pharmacie Bir Kacem, Rabat, Morocco", "city": "Rabat", "geocoded": true, "latitude": 33.9609353, "longitude": -6.836271099999999}, {"name": "Pharmacie Louka Pharma", "phone": "0537634912", "address": "Pharmacie Louka Pharma, Rabat, Morocco", "city": "Rabat", "geocoded": true, "latitude": 34.0027782, "longitude": -6.8270496}, {"name": "Pharmacie Imane Ex Benyahia", "phone": "0537693900", "address": "Pharmacie Imane Ex Benyahia, Rabat, Morocco", "city": "Rabat", "geocoded": true, "latitude": 34.0060796, "longitude": -6.856293}, {"name": "Pharmacie Jnane Souissi", "phone": "0537630404", "address": "Pharmacie Jnane Souissi, Rabat, Morocco", "city": "Rabat", "geocoded": true, "latitude": 33.9488044, "longitude": -6.843484600000001}, {"name": "Pharmacie Dar Achabab", "phone": "0537792254", "address": "Pharmacie Dar Achabab, Rabat, Morocco", "city": "Rabat", "geocoded": true, "latitude": 33.9756988, "longitude": -6.8858076}, {"name": "Pharmacie Mabella", "phone": "0537651468", "address": "Pharmacie Mabella, Rabat, Morocco", "city": "Rabat", "geocoded": true, "latitude": 33.9955367, "longitude": -6.819981400000001}, {"name": "Pharmacie Al Osra", "phone": "0537759559", "address": "Pharmacie Al Osra, Rabat, Morocco", "city": "Rabat", "geocoded": true, "latitude": 33.9838798, "longitude": -6.8102068}, {"name": "Pharmacie Al Houda", "phone": "0537753451", "address": "Pharmacie Al Houda, Rabat, Morocco", "city": "Rabat", "geocoded": true, "latitude": 33.9897465, "longitude": -6.8106708}, {"name": "Pharmacie Moderne", "phone": "0537778982", "address": "Pharmacie Moderne, Rabat, Morocco", "city": "Rabat", "geocoded": true, "latitude": 34.0001977, "longitude": -6.8468734}, {"name": "Pharmacie Yamina", "phone": "0537756975", "address": "Pharmacie Yamina, Rabat, Morocco", "city": "Rabat", "geocoded": true, "latitude": 33.9592091, "longitude": -6.823982399999999}, {"name": "Pharmacie Al Bahja", "phone": "0537797137", "address": "Pharmacie Al Bahja, Rabat, Morocco", "city": "Rabat", "geocoded": true, "latitude": 33.9685264, "longitude": -6.888546499999999}, {"name": "Pharmacie Bayt Al Maarifa", "phone": "0537770738", "address": "Pharmacie Bayt Al Maarifa, Rabat, Morocco", "city": "Rabat", "geocoded": true, "latitude": 33.984426, "longitude": -6.8629414}, {"name": "Pharmacie Marassa", "phone": "0537201963", "address": "Pharmacie Marassa, Rabat, Morocco", "city": "Rabat", "geocoded": true, "latitude": 34.0251078, "longitude": -6.841666099999999}, {"name": "Pharmacie Riad Assalam", "phone": "0537563582", "address": "Pharmacie Riad Assalam, Rabat, Morocco", "city": "Rabat", "geocoded": true, "latitude": 33.9504917, "longitude": -6.868918799999999}, {"name": "Pharmacie Gharbia", "phone": "0537201650", "address": "Pharmacie Gharbia, Rabat, Morocco", "city": "Rabat", "geocoded": true, "latitude": 34.026833, "longitude": -6.8453803}, {"name": "Pharmacie El Guich", "phone": "0537561821", "address": "Pharmacie El Guich, Rabat, Morocco", "city": "Rabat", "geocoded": true, "latitude": 33.9388927, "longitude": -6.886635800000001}, {"name": "Pharmacie Sofia", "phone": "0537282928", "address": "Pharmacie Sofia, Rabat, Morocco", "city": "Rabat", "geocoded": true, "latitude": 33.9709363, "longitude": -6.894438699999999}, {"name": "Pharmacie Akkari", "phone": "0537691086", "address": "Pharmacie Akkari, Rabat, Morocco", "city": "Rabat", "geocoded": true, "latitude": 34.00868610000001, "longitude": -6.859475}, {"name": "Pharmacie Rabat Voyageur", "phone": "0537791363", "address": "Pharmacie Rabat Voyageur, Rabat, Morocco", "city": "Rabat", "geocoded": true, "latitude": 33.9682227, "longitude": -6.8820441}, {"name": "Pharmacie la Pin\u00e8de", "phone": "0537630706", "address": "Pharmacie la Pin\u00e8de, Rabat, Morocco", "city": "Rabat", "geocoded": true, "latitude": 33.9856978, "longitude": -6.8282766}, {"name": "Pharmacie Ar Rahman", "phone": "0537282961", "address": "Pharmacie Ar Rahman, Rabat, Morocco", "city": "Rabat", "geocoded": true, "latitude": 33.9860982, "longitude": -6.8823975}, {"name": "Pharma Square", "phone": "0808520353", "address": "Pharma Square, Rabat, Morocco", "city": "Rabat", "geocoded": true, "latitude": 33.9543937, "longitude": -6.848987999999999}, {"name": "Pharmacie Maghrebine Ex Hopital", "phone": "0537725368", "address": "Pharmacie Maghrebine Ex Hopital, Rabat, Morocco", "city": "Rabat", "geocoded": true, "latitude": 34.0221277, "longitude": -6.8497087}, {"name": "Pharmacie Le Carrousel", "phone": "0537799364", "address": "Pharmacie Le Carrousel, Rabat, Morocco", "city": "Rabat", "geocoded": true, "latitude": 33.9825106, "longitude": -6.8957467}, {"name": "Pharmacie L 039 Enfant", "phone": "0537654128", "address": "Pharmacie L 039 Enfant, Rabat, Morocco", "city": "Rabat", "geocoded": true, "latitude": 33.9814337, "longitude": -6.8104806}, {"name": "Pharmacie Pharma Square", "phone": "0537910223", "address": "Pharmacie Pharma Square, Rabat, Morocco", "city": "Rabat", "geocoded": true, "latitude": 33.9543937, "longitude": -6.848987999999999}, {"name": "Pharmacie Sawmaat Hassan", "phone": "0537720250", "address": "Pharmacie Sawmaat Hassan, Rabat, Morocco", "city": "Rabat", "geocoded": true, "latitude": 34.017886, "longitude": -6.8291884}, {"name": "Pharmacie De L 039 Agdal", "phone": "0537671600", "address": "Pharmacie De L 039 Agdal, Rabat, Morocco", "city": "Rabat", "geocoded": true, "latitude": 33.9886494, "longitude": -6.848057499999999}, {"name": "Pharmacie C H U", "phone": "0537672532", "address": "Pharmacie C H U, Rabat, Morocco", "city": "Rabat", "geocoded": true, "latitude": 33.9878605, "longitude": -6.853066999999999}, {"name": "Pharmacie Centrale", "phone": "0537724395", "address": "Pharmacie Centrale, Rabat, Morocco", "city": "Rabat", "geocoded": true, "latitude": 34.0213952, "longitude": -6.8392883}, {"name": "Pharmacie Mazhar", "phone": "0537794666", "address": "Pharmacie Mazhar, Rabat, Morocco", "city": "Rabat", "geocoded": true, "latitude": 33.9753996, "longitude": -6.882336599999999}, {"name": "Pharmacie Gharnata", "phone": "0537281201", "address": "Pharmacie Gharnata, Rabat, Morocco", "city": "Rabat", "geocoded": true, "latitude": 33.9837229, "longitude": -6.8837271}, {"name": "Pharmacie Albarid", "phone": "0537659666", "address": "Pharmacie Albarid, Rabat, Morocco", "city": "Rabat", "geocoded": true, "latitude": 33.9753243, "longitude": -6.8136443}, {"name": "Pharmacie Avenue D Rsquo Alger Hassan", "phone": "0537726323", "address": "Pharmacie Avenue D Rsquo Alger Hassan, Rabat, Morocco", "city": "Rabat", "geocoded": true, "latitude": 34.0174652, "longitude": -6.8257631}, {"name": "Pharmacie Chenier", "phone": "0537201539", "address": "Pharmacie Chenier, Rabat, Morocco", "city": "Rabat", "geocoded": true, "latitude": 34.0187747, "longitude": -6.8230227}, {"name": "Pharmacie L 039 Orchidee", "phone": "0537716381", "address": "Pharmacie L 039 Orchidee, Rabat, Morocco", "city": "Rabat", "geocoded": true, "latitude": 33.9483371, "longitude": -6.8690997}, {"name": "Pharmacie Cherqi", "phone": "0537207474", "address": "Pharmacie Cherqi, Rabat, Morocco", "city": "Rabat", "geocoded": true, "latitude": 34.028643, "longitude": -6.8387918}, {"name": "Pharmacie L 039 Hopital Militaire", "phone": "0537565030", "address": "Pharmacie L 039 Hopital Militaire, Rabat, Morocco", "city": "Rabat", "geocoded": true, "latitude": 33.9639552, "longitude": -6.8703069}, {"name": "Pharmacie Marjolaine", "phone": "0537291233", "address": "Pharmacie Marjolaine, Rabat, Morocco", "city": "Rabat", "geocoded": true, "latitude": 33.9697651, "longitude": -6.9043724}, {"name": "Pharmacie des Universit\u00e9s", "phone": "0537670404", "address": "Pharmacie des Universit\u00e9s, Rabat, Morocco", "city": "Rabat", "geocoded": true, "latitude": 33.9882035, "longitude": -6.851336799999999}, {"name": "Pharmacie Ait Youssa", "phone": "0537659910", "address": "Pharmacie Ait Youssa, Rabat, Morocco", "city": "Rabat", "geocoded": true, "latitude": 33.9938753, "longitude": -6.8130114}, {"name": "", "phone": "", "address": ", Rabat, Morocco", "city": "Rabat", "geocoded": true, "latitude": 34.0083637, "longitude": -6.8538748}, {"name": "Pharmacie Fleming", "phone": "0537757075", "address": "Pharmacie Fleming, Rabat, Morocco", "city": "Rabat", "geocoded": true, "latitude": 33.9479342, "longitude": -6.8288804}, {"name": "Pharmacie Meskellil", "phone": "0537714624", "address": "Pharmacie Meskellil, Rabat, Morocco", "city": "Rabat", "geocoded": true, "latitude": 33.9475287, "longitude": -6.860739799999999}, {"name": "Pharmacie Sahbi", "phone": "0537698488", "address": "Pharmacie Sahbi, Rabat, Morocco", "city": "Rabat", "geocoded": true, "latitude": 33.9925698, "longitude": -6.8818687}, {"name": "Pharmacie El Mansour", "phone": "0537797898", "address": "Pharmacie El Mansour, Rabat, Morocco", "city": "Rabat", "geocoded": true, "latitude": 33.9812125, "longitude": -6.884516499999999}, {"name": "Pharmacie Al Barid", "phone": "0537659666", "address": "Pharmacie Al Barid, Rabat, Morocco", "city": "Rabat", "geocoded": true, "latitude": 33.9753243, "longitude": -6.8136443}, {"name": "Pharmacie De L 039 Ocean", "phone": "0537202176", "address": "Pharmacie De L 039 Ocean, Rabat, Morocco", "city": "Rabat", "geocoded": true, "latitude": 34.0251715, "longitude": -6.8465089}, {"name": "Pharmacie Les Ministeres D 039 Agdal", "phone": "0537682562", "address": "Pharmacie Les Ministeres D 039 Agdal, Rabat, Morocco", "city": "Rabat", "geocoded": true, "latitude": 33.9954358, "longitude": -6.855690399999999}, {"name": "Pharmacie Ryad Ennakhil", "phone": "0537716500", "address": "Pharmacie Ryad Ennakhil, Rabat, Morocco", "city": "Rabat", "geocoded": true, "latitude": 33.9579107, "longitude": -6.868401299999999}, {"name": "Pharmacie Galien", "phone": "0537759747", "address": "Pharmacie Galien, Rabat, Morocco", "city": "Rabat", "geocoded": true, "latitude": 33.9726763, "longitude": -6.824728299999999}, {"name": "Pharmacie Assounah", "phone": "0537765995", "address": "Pharmacie Assounah, Rabat, Morocco", "city": "Rabat", "geocoded": true, "latitude": 34.0112796, "longitude": -6.8291058}, {"name": "Pharmacie L 039 Avenir", "phone": "0537798871", "address": "Pharmacie L 039 Avenir, Rabat, Morocco", "city": "Rabat", "geocoded": true, "latitude": 33.9712059, "longitude": -6.886059899999999}, {"name": "Pharmacie Tarik", "phone": "0537798347", "address": "Pharmacie Tarik, Rabat, Morocco", "city": "Rabat", "geocoded": true, "latitude": 33.9781649, "longitude": -6.8854231}, {"name": "Pharmacie AlBahja", "phone": "0537797137", "address": "Pharmacie AlBahja, Rabat, Morocco", "city": "Rabat", "geocoded": true, "latitude": 33.9685264, "longitude": -6.888546499999999}, {"name": "Pharmacie Doum", "phone": "0537630417", "address": "Pharmacie Doum, Rabat, Morocco", "city": "Rabat", "geocoded": true, "latitude": 33.9988096, "longitude": -6.8125718}, {"name": "Pharmacie AlMajd", "phone": "0537799696", "address": "Pharmacie AlMajd, Rabat, Morocco", "city": "Rabat", "geocoded": true, "latitude": 33.9833646, "longitude": -6.876669199999999}, {"name": "Pharmacie Kawtar Riad", "phone": "0537563638", "address": "Pharmacie Kawtar Riad, Rabat, Morocco", "city": "Rabat", "geocoded": true, "latitude": 33.9502958, "longitude": -6.8713968}, {"name": "Pharmacie l'H\u00f4pital Militaire", "phone": "0537565030", "address": "Pharmacie l'H\u00f4pital Militaire, Rabat, Morocco", "city": "Rabat", "geocoded": true, "latitude": 33.9639552, "longitude": -6.8703069}, {"name": "Pharmacie El Mellah", "phone": "0537201802", "address": "Pharmacie El Mellah, Rabat, Morocco", "city": "Rabat", "geocoded": true, "latitude": 34.0257661, "longitude": -6.8296842}, {"name": "Pharmacie Bismillah", "phone": "0537636375", "address": "Pharmacie Bismillah, Rabat, Morocco", "city": "Rabat", "geocoded": true, "latitude": 34.0034511, "longitude": -6.8574436}, {"name": "Pharmacie Al Fatih", "phone": "0537631690", "address": "Pharmacie Al Fatih, Rabat, Morocco", "city": "Rabat", "geocoded": true, "latitude": 33.9647902, "longitude": -6.9037928}, {"name": "Pharmacie du Parc", "phone": "0537751497", "address": "Pharmacie du Parc, Rabat, Morocco", "city": "Rabat", "geocoded": true, "latitude": 33.9985921, "longitude": -6.8272233}, {"name": "Pharmacie Ziady", "phone": "0537693015", "address": "Pharmacie Ziady, Rabat, Morocco", "city": "Rabat", "geocoded": true, "latitude": 33.9965293, "longitude": -6.8709527}, {"name": "Pharmacie Souika", "phone": "0537703036", "address": "Pharmacie Souika, Rabat, Morocco", "city": "Rabat", "geocoded": true, "latitude": 34.0241076, "longitude": -6.8348457}, {"name": "Pharmacie AlMountalak", "phone": "0537294480", "address": "Pharmacie AlMountalak, Rabat, Morocco", "city": "Rabat", "geocoded": true, "latitude": 33.9696412, "longitude": -6.900706}, {"name": "Pharmacie AlFaraj", "phone": "0537692746", "address": "Pharmacie AlFaraj, Rabat, Morocco", "city": "Rabat", "geocoded": true, "latitude": 35.3286294, "longitude": -5.359416}, {"name": "Pharmacie Ghayt", "phone": "0537571572", "address": "Pharmacie Ghayt, Rabat, Morocco", "city": "Rabat", "geocoded": true, "latitude": 33.9505053, "longitude": -6.8596644}, {"name": "Pharmacie Choukr Allah", "phone": "0537792355", "address": "Pharmacie Choukr Allah, Rabat, Morocco", "city": "Rabat", "geocoded": true, "latitude": 33.98765789999999, "longitude": -6.8732624}, {"name": "Pharmacie Tarik Elmehdi", "phone": "0537798347", "address": "Pharmacie Tarik Elmehdi, Rabat, Morocco", "city": "Rabat", "geocoded": true, "latitude": 33.9781649, "longitude": -6.8854231}, {"name": "Pharmacie El Mellah", "phone": "0537201802", "address": "Pharmacie El Mellah, Rabat, Morocco", "city": "Rabat", "geocoded": true, "latitude": 34.0257661, "longitude": -6.8296842}, {"name": "Pharmacie AlMasjid", "phone": "0537295809", "address": "Pharmacie AlMasjid, Rabat, Morocco", "city": "Rabat", "geocoded": true, "latitude": 34.0024962, "longitude": -6.868746}, {"name": "Pharmacie Carrousel", "phone": "0537799364/0661976927", "address": "Pharmacie Carrousel, Rabat, Morocco", "city": "Rabat", "geocoded": true, "latitude": 33.9825106, "longitude": -6.8957467}, {"name": "Pharmacie Sanaoubar", "phone": "0537717110", "address": "Pharmacie Sanaoubar, Rabat, Morocco", "city": "Rabat", "geocoded": true, "latitude": 33.9579007, "longitude": -6.8794833}, {"name": "Pharmacie Rabat Corniche", "phone": "0537698488", "address": "Pharmacie Rabat Corniche, Rabat, Morocco", "city": "Rabat", "geocoded": true, "latitude": 34.00307360000001, "longitude": -6.8719209}, {"name": "Pharmacie El Joulane", "phone": "0537756756", "address": "Pharmacie El Joulane, Rabat, Morocco", "city": "Rabat", "geocoded": true, "latitude": 33.9788271, "longitude": -6.822243299999999}, {"name": "Pharmacie de Madagascar", "phone": "0537732210", "address": "Pharmacie de Madagascar, Rabat, Morocco", "city": "Rabat", "geocoded": true, "latitude": 34.01248959999999, "longitude": -6.851193899999999}, {"name": "Pharmacie Ibn Nafis", "phone": "0537720657", "address": "Pharmacie Ibn Nafis, Rabat, Morocco", "city": "Rabat", "geocoded": true, "latitude": 34.0218169, "longitude": -6.8419766}, {"name": "Pharmacie Alkifah", "phone": "0537796856", "address": "Pharmacie Alkifah, Rabat, Morocco", "city": "Rabat", "geocoded": true, "latitude": 33.9906681, "longitude": -6.8716952}, {"name": "Pharmacie Boucham", "phone": "0537757800", "address": "Pharmacie Boucham, Rabat, Morocco", "city": "Rabat", "geocoded": true, "latitude": 33.9885829, "longitude": -6.820308199999999}, {"name": "Pharmacie du 16 novembre", "phone": "0537670024", "address": "Pharmacie du 16 novembre, Rabat, Morocco", "city": "Rabat", "geocoded": true, "latitude": 33.9912098, "longitude": -6.8489214}, {"name": "Pharmacie Al Wifak", "phone": "0537777555", "address": "Pharmacie Al Wifak, Rabat, Morocco", "city": "Rabat", "geocoded": true, "latitude": 34.0011429, "longitude": -6.851282899999999}, {"name": "Pharmacie Al Majd", "phone": "0537799696", "address": "Pharmacie Al Majd, Rabat, Morocco", "city": "Rabat", "geocoded": true, "latitude": 33.9833646, "longitude": -6.876669199999999}, {"name": "Pharmacie Badr", "phone": "0537773462", "address": "Pharmacie Badr, Rabat, Morocco", "city": "Rabat", "geocoded": true, "latitude": 34.0038081, "longitude": -6.8516051}, {"name": "Pharmacie Des Orangers", "phone": "0535401487", "address": "Pharmacie Des Orangers, Rabat, Morocco", "city": "Rabat", "geocoded": true, "latitude": 34.01972629999999, "longitude": -6.8426845}, {"name": "Louka Pharma", "phone": "0537634912", "address": "Louka Pharma, Rabat, Morocco", "city": "Rabat", "geocoded": true, "latitude": 34.0027782, "longitude": -6.8270496}, {"name": "Pharmacie Rabat Ville", "phone": "0537206119", "address": "Pharmacie Rabat Ville, Rabat, Morocco", "city": "Rabat", "geocoded": true, "latitude": 33.9647902, "longitude": -6.9037928}, {"name": "Pharmacie Abou Bakr Assedik", "phone": "0537651874", "address": "Pharmacie Abou Bakr Assedik, Rabat, Morocco", "city": "Rabat", "geocoded": true, "latitude": 33.9929249, "longitude": -6.8208033}, {"name": "Pharmacie les Arcades", "phone": "0537724222", "address": "Pharmacie les Arcades, Rabat, Morocco", "city": "Rabat", "geocoded": true, "latitude": 34.0126484, "longitude": -6.842361599999999}, {"name": "Pharmacie Rhaouti", "phone": "0537772324", "address": "Pharmacie Rhaouti, Rabat, Morocco", "city": "Rabat", "geocoded": true, "latitude": 33.9760028, "longitude": -6.8699932}, {"name": "Pharmacie El Kamra", "phone": "0537295141", "address": "Pharmacie El Kamra, Rabat, Morocco", "city": "Rabat", "geocoded": true, "latitude": 33.9966791, "longitude": -6.8683055}, {"name": "Pharmacie Chem's", "phone": "0537230755", "address": "Pharmacie Chem's, Rabat, Morocco", "city": "Rabat", "geocoded": true, "latitude": 34.0134201, "longitude": -6.8611157}, {"name": "Pharmacie Ibn Sina", "phone": "0537672016", "address": "Pharmacie Ibn Sina, Rabat, Morocco", "city": "Rabat", "geocoded": true, "latitude": 33.9962566, "longitude": -6.848215799999999}, {"name": "Pharmacie Hay El Fath", "phone": "0703010203", "address": "Pharmacie Hay El Fath, Rabat, Morocco", "city": "Rabat", "geocoded": true, "latitude": 33.9647902, "longitude": -6.9037928}, {"name": "Pharmacie des Zaers", "phone": "0537752187", "address": "Pharmacie des Zaers, Rabat, Morocco", "city": "Rabat", "geocoded": true, "latitude": 33.9822465, "longitude": -6.8287119}, {"name": "Pharmacie Ryad Andalous", "phone": "0537564778", "address": "Pharmacie Ryad Andalous, Rabat, Morocco", "city": "Rabat", "geocoded": true, "latitude": 33.9571478, "longitude": -6.8832223}, {"name": "Pharmacie du Mausol\u00e9e", "phone": "0537725120", "address": "Pharmacie du Mausol\u00e9e, Rabat, Morocco", "city": "Rabat", "geocoded": true, "latitude": 34.0237279, "longitude": -6.825358599999999}, {"name": "Pharmacie Alam", "phone": "0537775269", "address": "Pharmacie Alam, Rabat, Morocco", "city": "Rabat", "geocoded": true, "latitude": 34.0083024, "longitude": -6.8446551}, {"name": "Pharmacie Hyper Carrefour", "phone": "0537755555", "address": "Pharmacie Hyper Carrefour, Rabat, Morocco", "city": "Rabat", "geocoded": true, "latitude": 33.969561, "longitude": -6.882834000000001}, {"name": "Pharmacie Ibn Yassine", "phone": "0537772743", "address": "Pharmacie Ibn Yassine, Rabat, Morocco", "city": "Rabat", "geocoded": true, "latitude": 34.0051255, "longitude": -6.8475958}, {"name": "Pharmacie Bin ElOuidane", "phone": "0537772478", "address": "Pharmacie Bin ElOuidane, Rabat, Morocco", "city": "Rabat", "geocoded": true, "latitude": 34.0066555, "longitude": -6.8507833}, {"name": "Pharmacie Marjane", "phone": "0537701663", "address": "Pharmacie Marjane, Rabat, Morocco", "city": "Rabat", "geocoded": true, "latitude": 33.9542057, "longitude": -6.852440199999999}, {"name": "Pharmacie les Minist\u00e8res d'Agdal", "phone": "0537682562", "address": "Pharmacie les Minist\u00e8res d'Agdal, Rabat, Morocco", "city": "Rabat", "geocoded": true, "latitude": 33.9954358, "longitude": -6.855690399999999}, {"name": "Pharmacie Hay Al Kora", "phone": "0537299176", "address": "Pharmacie Hay Al Kora, Rabat, Morocco", "city": "Rabat", "geocoded": true, "latitude": 33.9962576, "longitude": -6.8779727}, {"name": "Pharmacie Mosquee Rabat", "phone": "0537715085", "address": "Pharmacie Mosquee Rabat, Rabat, Morocco", "city": "Rabat", "geocoded": true, "latitude": 33.9572154, "longitude": -6.8733067}, {"name": "Pharmacie Maghrebine", "phone": "0537725368", "address": "Pharmacie Maghrebine, Rabat, Morocco", "city": "Rabat", "geocoded": true, "latitude": 34.0221277, "longitude": -6.8497087}, {"name": "Pharmacie Al Mountazah", "phone": "0537790016", "address": "Pharmacie Al Mountazah, Rabat, Morocco", "city": "Rabat", "geocoded": true, "latitude": 33.9686258, "longitude": -6.897910899999999}, {"name": "Pharmacie Alfadila", "phone": "0537690742", "address": "Pharmacie Alfadila, Rabat, Morocco", "city": "Rabat", "geocoded": true, "latitude": 34.0594888, "longitude": -6.778122799999999}, {"name": "Pharmacie Azur", "phone": "0537561592", "address": "Pharmacie Azur, Rabat, Morocco", "city": "Rabat", "geocoded": true, "latitude": 33.93637630000001, "longitude": -6.8876551}, {"name": "Pharmacie Akkari", "phone": "0537691086", "address": "Pharmacie Akkari, Rabat, Morocco", "city": "Rabat", "geocoded": true, "latitude": 34.00868610000001, "longitude": -6.859475}, {"name": "Pharmacie Du Minaret", "phone": "0537726495", "address": "Pharmacie Du Minaret, Rabat, Morocco", "city": "Rabat", "geocoded": true, "latitude": 34.0140071, "longitude": -6.8480656}, {"name": "Pharmacie AlHamd", "phone": "0537294637", "address": "Pharmacie AlHamd, Rabat, Morocco", "city": "Rabat", "geocoded": true, "latitude": 33.989667, "longitude": -6.8746433}, {"name": "Pharmacie Ennaim", "phone": "0534197823", "address": "Pharmacie Ennaim, Rabat, Morocco", "city": "Rabat", "geocoded": true, "latitude": 33.9889084, "longitude": -6.8780936}, {"name": "Pharmacie La Reussite", "phone": "0537758109", "address": "Pharmacie La Reussite, Rabat, Morocco", "city": "Rabat", "geocoded": true, "latitude": 33.9860606, "longitude": -6.8148928}, {"name": "Pharmacie Des Universites", "phone": "0537670404", "address": "Pharmacie Des Universites, Rabat, Morocco", "city": "Rabat", "geocoded": true, "latitude": 33.9882035, "longitude": -6.851336799999999}, {"name": "Pharmacie Al Masjid", "phone": "0537295809", "address": "Pharmacie Al Masjid, Rabat, Morocco", "city": "Rabat", "geocoded": true, "latitude": 34.0024962, "longitude": -6.868746}, {"name": "Pharmacie Attannoub", "phone": "0537713885", "address": "Pharmacie Attannoub, Rabat, Morocco", "city": "Rabat", "geocoded": true, "latitude": 33.9568508, "longitude": -6.8547582}, {"name": "Pharmacie Benyahia", "phone": "0537693900", "address": "Pharmacie Benyahia, Rabat, Morocco", "city": "Rabat", "geocoded": true, "latitude": 34.0060796, "longitude": -6.856293}, {"name": "Pharmacie Al Azhar", "phone": "0537799107", "address": "Pharmacie Al Azhar, Rabat, Morocco", "city": "Rabat", "geocoded": true, "latitude": 33.9731662, "longitude": -6.897201}, {"name": "Pharmacie Du Parc", "phone": "0537751497", "address": "Pharmacie Du Parc, Rabat, Morocco", "city": "Rabat", "geocoded": false, "latitude": 0.0, "longitude": 0.0}, {"name": "Pharmacie Borj", "phone": "0537566783", "address": "Pharmacie Borj, Rabat, Morocco", "city": "Rabat", "geocoded": false, "latitude": 0.0, "longitude": 0.0}, {"name": "Pharmacie Nadia", "phone": "0537692923", "address": "Pharmacie Nadia, Rabat, Morocco", "city": "Rabat", "geocoded": false, "latitude": 0.0, "longitude": 0.0}, {"name": "Pharmacie Aloum", "phone": "0537291245", "address": "Pharmacie Aloum, Rabat, Morocco", "city": "Rabat", "geocoded": false, "latitude": 0.0, "longitude": 0.0}, {"name": "Pharmacie Zina", "phone": "0537758899", "address": "Pharmacie Zina, Rabat, Morocco", "city": "Rabat", "geocoded": false, "latitude": 0.0, "longitude": 0.0}, {"name": "Pharmacie Al Manal", "phone": "0537655554", "address": "Pharmacie Al Manal, Rabat, Morocco", "city": "Rabat", "geocoded": false, "latitude": 0.0, "longitude": 0.0}, {"name": "Pharmacie hay Bouhlal", "phone": "0537297717", "address": "Pharmacie hay Bouhlal, Rabat, Morocco", "city": "Rabat", "geocoded": false, "latitude": 0.0, "longitude": 0.0}, {"name": "Pharmacie Avenue Mohamed Vi", "phone": "0537650674", "address": "Pharmacie Avenue Mohamed Vi, Rabat, Morocco", "city": "Rabat", "geocoded": false, "latitude": 0.0, "longitude": 0.0}, {"name": "Pharmacie le Claridge", "phone": "0537654055", "address": "Pharmacie le Claridge, Rabat, Morocco", "city": "Rabat", "geocoded": false, "latitude": 0.0, "longitude": 0.0}, {"name": "Pharmacie Ziady", "phone": "0537693015", "address": "Pharmacie Ziady, Rabat, Morocco", "city": "Rabat", "geocoded": false, "latitude": 0.0, "longitude": 0.0}, {"name": "Pharmacie Soundous", "phone": "0537560021", "address": "Pharmacie Soundous, Rabat, Morocco", "city": "Rabat", "geocoded": false, "latitude": 0.0, "longitude": 0.0}, {"name": "Pharmacie L'orchidee", "phone": "05377163810537572037", "address": "Pharmacie L'orchidee, Rabat, Morocco", "city": "Rabat", "geocoded": false, "latitude": 0.0, "longitude": 0.0}, {"name": "Pharmacie Carr\u00e9 Sant\u00e9 Beaut\u00e9", "phone": "0537717127", "address": "Pharmacie Carr\u00e9 Sant\u00e9 Beaut\u00e9, Rabat, Morocco", "city": "Rabat", "geocoded": false, "latitude": 0.0, "longitude": 0.0}, {"name": "Pharmacie Dar Essalam", "phone": "0537754111", "address": "Pharmacie Dar Essalam, Rabat, Morocco", "city": "Rabat", "geocoded": false, "latitude": 0.0, "longitude": 0.0}, {"name": "Pharmacie Du Haut Souissi", "phone": "0537758072", "address": "Pharmacie Du Haut Souissi, Rabat, Morocco", "city": "Rabat", "geocoded": false, "latitude": 0.0, "longitude": 0.0}, {"name": "Pharmacie Al Melia", "phone": "0537759202", "address": "Pharmacie Al Melia, Rabat, Morocco", "city": "Rabat", "geocoded": false, "latitude": 0.0, "longitude": 0.0}, {"name": "Pharmacie Karioun", "phone": "0537231383", "address": "Pharmacie Karioun, Rabat, Morocco", "city": "Rabat", "geocoded": false, "latitude": 0.0, "longitude": 0.0}, {"name": "Pharmacie Gare Agdal", "phone": "0537774220", "address": "Pharmacie Gare Agdal, Rabat, Morocco", "city": "Rabat", "geocoded": false, "latitude": 0.0, "longitude": 0.0}, {"name": "Pharmacie Elwahda", "phone": "0537754991", "address": "Pharmacie Elwahda, Rabat, Morocco", "city": "Rabat", "geocoded": false, "latitude": 0.0, "longitude": 0.0}, {"name": "Pharmacie Les Almohades", "phone": "0537707001", "address": "Pharmacie Les Almohades, Rabat, Morocco", "city": "Rabat", "geocoded": false, "latitude": 0.0, "longitude": 0.0}, {"name": "Pharmacie Tarik", "phone": "0537798347", "address": "Pharmacie Tarik, Rabat, Morocco", "city": "Rabat", "geocoded": false, "latitude": 0.0, "longitude": 0.0}, {"name": "Pharmacie De Kebibat", "phone": "0537690507", "address": "Pharmacie De Kebibat, Rabat, Morocco", "city": "Rabat", "geocoded": false, "latitude": 0.0, "longitude": 0.0}, {"name": "Pharmacie Cite Amal", "phone": "0537795018", "address": "Pharmacie Cite Amal, Rabat, Morocco", "city": "Rabat", "geocoded": false, "latitude": 0.0, "longitude": 0.0}, {"name": "Pharmacie Galaxy Sante", "phone": "0537636056", "address": "Pharmacie Galaxy Sante, Rabat, Morocco", "city": "Rabat", "geocoded": false, "latitude": 0.0, "longitude": 0.0}, {"name": "Pharmacie De La Sante", "phone": "0537650252", "address": "Pharmacie De La Sante, Rabat, Morocco", "city": "Rabat", "geocoded": false, "latitude": 0.0, "longitude": 0.0}, {"name": "Pharmacie Arrahmane", "phone": "0537282961", "address": "Pharmacie Arrahmane, Rabat, Morocco", "city": "Rabat", "geocoded": false, "latitude": 0.0, "longitude": 0.0}, {"name": "Pharmacie Bouitat", "phone": "0537290867", "address": "Pharmacie Bouitat, Rabat, Morocco", "city": "Rabat", "geocoded": false, "latitude": 0.0, "longitude": 0.0}, {"name": "Pharmacie Avenue D'alger Hassan", "phone": "0537726323", "address": "Pharmacie Avenue D'alger Hassan, Rabat, Morocco", "city": "Rabat", "geocoded": false, "latitude": 0.0, "longitude": 0.0}, {"name": "Pharmacie  Rachad Takaddoum", "phone": "0537634293", "address": "Pharmacie  Rachad Takaddoum, Rabat, Morocco", "city": "Rabat", "geocoded": false, "latitude": 0.0, "longitude": 0.0}, {"name": "Pharmacie Al Andalous", "phone": "0537750175", "address": "Pharmacie Al Andalous, Rabat, Morocco", "city": "Rabat", "geocoded": false, "latitude": 0.0, "longitude": 0.0}, {"name": "Pharmacie Chellah", "phone": "0537724723", "address": "Pharmacie Chellah, Rabat, Morocco", "city": "Rabat", "geocoded": false, "latitude": 0.0, "longitude": 0.0}, {"name": "Pharmacie Safiya", "phone": "0537713443", "address": "Pharmacie Safiya, Rabat, Morocco", "city": "Rabat", "geocoded": false, "latitude": 0.0, "longitude": 0.0}, {"name": "Pharmacie Anasse", "phone": "0537298899", "address": "Pharmacie Anasse, Rabat, Morocco", "city": "Rabat", "geocoded": false, "latitude": 0.0, "longitude": 0.0}, {"name": "Pharmacie Centre Ch\u00e8ques Postaux", "phone": "0537726216", "address": "Pharmacie Centre Ch\u00e8ques Postaux, Rabat, Morocco", "city": "Rabat", "geocoded": false, "latitude": 0.0, "longitude": 0.0}, {"name": "Pharmacie Benyahya", "phone": "0537693900", "address": "Pharmacie Benyahya, Rabat, Morocco", "city": "Rabat", "geocoded": false, "latitude": 0.0, "longitude": 0.0}, {"name": "Pharmacie Ibn Sina", "phone": "0537672016", "address": "Pharmacie Ibn Sina, Rabat, Morocco", "city": "Rabat", "geocoded": false, "latitude": 0.0, "longitude": 0.0}, {"name": "Pharmacie Amwaj", "phone": "0537790220", "address": "Pharmacie Amwaj, Rabat, Morocco", "city": "Rabat", "geocoded": false, "latitude": 0.0, "longitude": 0.0}, {"name": "Pharmacie les Lilas", "phone": "0537756273", "address": "Pharmacie les Lilas, Rabat, Morocco", "city": "Rabat", "geocoded": false, "latitude": 0.0, "longitude": 0.0}, {"name": "Pharmacie Iklil Ryad", "phone": "0537713868", "address": "Pharmacie Iklil Ryad, Rabat, Morocco", "city": "Rabat", "geocoded": false, "latitude": 0.0, "longitude": 0.0}, {"name": "Carre Sante Beaute", "phone": "0537717127", "address": "Carre Sante Beaute, Rabat, Morocco", "city": "Rabat", "geocoded": false, "latitude": 0.0, "longitude": 0.0}, {"name": "Pharmacie la Corniche", "phone": "0537729744", "address": "Pharmacie la Corniche, Rabat, Morocco", "city": "Rabat", "geocoded": false, "latitude": 0.0, "longitude": 0.0}, {"name": "Pharmacie AlIntilak", "phone": "0537295377", "address": "Pharmacie AlIntilak, Rabat, Morocco", "city": "Rabat", "geocoded": false, "latitude": 0.0, "longitude": 0.0}, {"name": "Pharmacie El Amine", "phone": "0537726932", "address": "Pharmacie El Amine, Rabat, Morocco", "city": "Rabat", "geocoded": false, "latitude": 0.0, "longitude": 0.0}, {"name": "Pharmacie De L'agdal", "phone": "0537671600", "address": "Pharmacie De L'agdal, Rabat, Morocco", "city": "Rabat", "geocoded": false, "latitude": 0.0, "longitude": 0.0}, {"name": "Pharmacie l'officine moderne", "phone": "0537726323", "address": "Pharmacie l'officine moderne, Rabat, Morocco", "city": "Rabat", "geocoded": false, "latitude": 0.0, "longitude": 0.0}, {"name": "Pharmacie Yacoub ElMansour", "phone": "0537294841", "address": "Pharmacie Yacoub ElMansour, Rabat, Morocco", "city": "Rabat", "geocoded": false, "latitude": 0.0, "longitude": 0.0}, {"name": "Pharmacie Aya", "phone": "0537693388", "address": "Pharmacie Aya, Rabat, Morocco", "city": "Rabat", "geocoded": false, "latitude": 0.0, "longitude": 0.0}, {"name": "Pharmacie Al Khawarizmi", "phone": "0537791179", "address": "Pharmacie Al Khawarizmi, Rabat, Morocco", "city": "Rabat", "geocoded": false, "latitude": 0.0, "longitude": 0.0}, {"name": "Pharmacie Hyper Label'vie", "phone": "0537755555", "address": "Pharmacie Hyper Label'vie, Rabat, Morocco", "city": "Rabat", "geocoded": false, "latitude": 0.0, "longitude": 0.0}, {"name": "Pharmacie Attine", "phone": "0537281284", "address": "Pharmacie Attine, Rabat, Morocco", "city": "Rabat", "geocoded": false, "latitude": 0.0, "longitude": 0.0}, {"name": "Pharmacie AlAlfiya", "phone": "0537673796", "address": "Pharmacie AlAlfiya, Rabat, Morocco", "city": "Rabat", "geocoded": false, "latitude": 0.0, "longitude": 0.0}, {"name": "Pharmacie ElManzeh", "phone": "0537281122", "address": "Pharmacie ElManzeh, Rabat, Morocco", "city": "Rabat", "geocoded": false, "latitude": 0.0, "longitude": 0.0}, {"name": "Pharmacie Ibn Zohr", "phone": "0537695523", "address": "Pharmacie Ibn Zohr, Rabat, Morocco", "city": "Rabat", "geocoded": false, "latitude": 0.0, "longitude": 0.0}, {"name": "Pharmacie Al Mamoune", "phone": "0537560315", "address": "Pharmacie Al Mamoune, Rabat, Morocco", "city": "Rabat", "geocoded": false, "latitude": 0.0, "longitude": 0.0}, {"name": "Pharmacie Ibn Baytar", "phone": "0537794364", "address": "Pharmacie Ibn Baytar, Rabat, Morocco", "city": "Rabat", "geocoded": false, "latitude": 0.0, "longitude": 0.0}, {"name": "Pharmacie El Kouass", "phone": "0537794099", "address": "Pharmacie El Kouass, Rabat, Morocco", "city": "Rabat", "geocoded": false, "latitude": 0.0, "longitude": 0.0}, {"name": "Pharmacie Rim", "phone": "0537561813", "address": "Pharmacie Rim, Rabat, Morocco", "city": "Rabat", "geocoded": false, "latitude": 0.0, "longitude": 0.0}, {"name": "Pharmacie Al Imam Malik", "phone": "0537295428", "address": "Pharmacie Al Imam Malik, Rabat, Morocco", "city": "Rabat", "geocoded": false, "latitude": 0.0, "longitude": 0.0}, {"name": "Pharmacie du Th\u00e9\u00e2tre", "phone": "0537702794", "address": "Pharmacie du Th\u00e9\u00e2tre, Rabat, Morocco", "city": "Rabat", "geocoded": false, "latitude": 0.0, "longitude": 0.0}, {"name": "Pharmacie Sayarh", "phone": "0537292876", "address": "Pharmacie Sayarh, Rabat, Morocco", "city": "Rabat", "geocoded": false, "latitude": 0.0, "longitude": 0.0}, {"name": "Pharmacie Dar Essala", "phone": "0537754111", "address": "Pharmacie Dar Essala, Rabat, Morocco", "city": "Rabat", "geocoded": false, "latitude": 0.0, "longitude": 0.0}, {"name": "Pharmacie Ibn Tofail", "phone": "0537695685", "address": "Pharmacie Ibn Tofail, Rabat, Morocco", "city": "Rabat", "geocoded": false, "latitude": 0.0, "longitude": 0.0}, {"name": "Pharmacie La Muraille", "phone": "0537708877", "address": "Pharmacie La Muraille, Rabat, Morocco", "city": "Rabat", "geocoded": false, "latitude": 0.0, "longitude": 0.0}, {"name": "Pharmacie Amwaj", "phone": "0537790220", "address": "Pharmacie Amwaj, Rabat, Morocco", "city": "Rabat", "geocoded": false, "latitude": 0.0, "longitude": 0.0}, {"name": "Pharmacie Diour Jamaa", "phone": "0537261668", "address": "Pharmacie Diour Jamaa, Rabat, Morocco", "city": "Rabat", "geocoded": false, "latitude": 0.0, "longitude": 0.0}, {"name": "Pharmacie Moulay Youssef", "phone": "0537691937", "address": "Pharmacie Moulay Youssef, Rabat, Morocco", "city": "Rabat", "geocoded": false, "latitude": 0.0, "longitude": 0.0}, {"name": "Pharmacie AlBaraka", "phone": "0537636724", "address": "Pharmacie AlBaraka, Rabat, Morocco", "city": "Rabat", "geocoded": false, "latitude": 0.0, "longitude": 0.0}, {"name": "Pharmacie Lumi\u00e8re", "phone": "0537666601", "address": "Pharmacie Lumi\u00e8re, Rabat, Morocco", "city": "Rabat", "geocoded": false, "latitude": 0.0, "longitude": 0.0}, {"name": "Pharmacie Galaxy Sant\u00e9", "phone": "0537636056", "address": "Pharmacie Galaxy Sant\u00e9, Rabat, Morocco", "city": "Rabat", "geocoded": false, "latitude": 0.0, "longitude": 0.0}, {"name": "Pharmacie Youssoufia", "phone": "0537651027", "address": "Pharmacie Youssoufia, Rabat, Morocco", "city": "Rabat", "geocoded": false, "latitude": 0.0, "longitude": 0.0}, {"name": "Pharmacie de la c\u00f4te", "phone": "0537691154", "address": "Pharmacie de la c\u00f4te, Rabat, Morocco", "city": "Rabat", "geocoded": false, "latitude": 0.0, "longitude": 0.0}, {"name": "Pharmacie Rabat Ville", "phone": "0537206119", "address": "Pharmacie Rabat Ville, Rabat, Morocco", "city": "Rabat", "geocoded": false, "latitude": 0.0, "longitude": 0.0}, {"name": "Pharmacie Ibn Toumerte", "phone": "0537702095", "address": "Pharmacie Ibn Toumerte, Rabat, Morocco", "city": "Rabat", "geocoded": false, "latitude": 0.0, "longitude": 0.0}, {"name": "Pharmacie C.h.u", "phone": "0537672532", "address": "Pharmacie C.h.u, Rabat, Morocco", "city": "Rabat", "geocoded": false, "latitude": 0.0, "longitude": 0.0}, {"name": "Pharmacie Yaacoub El Mansour", "phone": "0537294841", "address": "Pharmacie Yaacoub El Mansour, Rabat, Morocco", "city": "Rabat", "geocoded": false, "latitude": 0.0, "longitude": 0.0}, {"name": "Pharmacie Ibn Khatab", "phone": "0537775781", "address": "Pharmacie Ibn Khatab, Rabat, Morocco", "city": "Rabat", "geocoded": false, "latitude": 0.0, "longitude": 0.0}, {"name": "Pharmacie Chifae", "phone": "0537795344", "address": "Pharmacie Chifae, Rabat, Morocco", "city": "Rabat", "geocoded": false, "latitude": 0.0, "longitude": 0.0}, {"name": "Pharmacie Iswane", "phone": "0537670777", "address": "Pharmacie Iswane, Rabat, Morocco", "city": "Rabat", "geocoded": false, "latitude": 0.0, "longitude": 0.0}, {"name": "Pharmacie des Cartes", "phone": "0537671090", "address": "Pharmacie des Cartes, Rabat, Morocco", "city": "Rabat", "geocoded": false, "latitude": 0.0, "longitude": 0.0}, {"name": "Pharmacie Jnane Ennahda", "phone": "0537756101", "address": "Pharmacie Jnane Ennahda, Rabat, Morocco", "city": "Rabat", "geocoded": false, "latitude": 0.0, "longitude": 0.0}, {"name": "Pharmacie Ibn Haytham", "phone": "0537734603", "address": "Pharmacie Ibn Haytham, Rabat, Morocco", "city": "Rabat", "geocoded": false, "latitude": 0.0, "longitude": 0.0}, {"name": "Pharmacie Les Iris", "phone": "0537776290", "address": "Pharmacie Les Iris, Rabat, Morocco", "city": "Rabat", "geocoded": false, "latitude": 0.0, "longitude": 0.0}, {"name": "Pharmacie Rachad", "phone": "0537753396", "address": "Pharmacie Rachad, Rabat, Morocco", "city": "Rabat", "geocoded": false, "latitude": 0.0, "longitude": 0.0}, {"name": "Pharmacie Kasry", "phone": "0537799690", "address": "Pharmacie Kasry, Rabat, Morocco", "city": "Rabat", "geocoded": false, "latitude": 0.0, "longitude": 0.0}, {"name": "Pharmacie Moulay Ismail", "phone": "0537203781", "address": "Pharmacie Moulay Ismail, Rabat, Morocco", "city": "Rabat", "geocoded": false, "latitude": 0.0, "longitude": 0.0}, {"name": "Pharmacie Ibn Khatab", "phone": "0537775781", "address": "Pharmacie Ibn Khatab, Rabat, Morocco", "city": "Rabat", "geocoded": false, "latitude": 0.0, "longitude": 0.0}, {"name": "Pharmacie De L'ocean", "phone": "0537202176", "address": "Pharmacie De L'ocean, Rabat, Morocco", "city": "Rabat", "geocoded": false, "latitude": 0.0, "longitude": 0.0}, {"name": "Pharmacie Annour", "phone": "0537691180", "address": "Pharmacie Annour, Rabat, Morocco", "city": "Rabat", "geocoded": false, "latitude": 0.0, "longitude": 0.0}, {"name": "Pharmacie ElMansour", "phone": "0537797898", "address": "Pharmacie ElMansour, Rabat, Morocco", "city": "Rabat", "geocoded": false, "latitude": 0.0, "longitude": 0.0}, {"name": "Pharmacie Ksar Bhar", "phone": "0537297208", "address": "Pharmacie Ksar Bhar, Rabat, Morocco", "city": "Rabat", "geocoded": false, "latitude": 0.0, "longitude": 0.0}, {"name": "Pharmacie Fatima-Zahraa", "phone": "0537758973", "address": "Pharmacie Fatima-Zahraa, Rabat, Morocco", "city": "Rabat", "geocoded": false, "latitude": 0.0, "longitude": 0.0}, {"name": "Pharmacie ElGuich", "phone": "0537561821", "address": "Pharmacie ElGuich, Rabat, Morocco", "city": "Rabat", "geocoded": false, "latitude": 0.0, "longitude": 0.0}, {"name": "Pharmacie De La Resistance", "phone": "0537724055", "address": "Pharmacie De La Resistance, Rabat, Morocco", "city": "Rabat", "geocoded": false, "latitude": 0.0, "longitude": 0.0}, {"name": "Pharmacie Du Mausolee", "phone": "0537725120", "address": "Pharmacie Du Mausolee, Rabat, Morocco", "city": "Rabat", "geocoded": false, "latitude": 0.0, "longitude": 0.0}, {"name": "Pharmacie Elighata", "phone": "0537792986", "address": "Pharmacie Elighata, Rabat, Morocco", "city": "Rabat", "geocoded": false, "latitude": 0.0, "longitude": 0.0}, {"name": "Pharmacie Boukroune", "phone": "0537722468", "address": "Pharmacie Boukroune, Rabat, Morocco", "city": "Rabat", "geocoded": false, "latitude": 0.0, "longitude": 0.0}, {"name": "Pharmacie Al Massira", "phone": "0537795061", "address": "Pharmacie Al Massira, Rabat, Morocco", "city": "Rabat", "geocoded": false, "latitude": 0.0, "longitude": 0.0}, {"name": "Pharmacie Les Arcades", "phone": "0537724222", "address": "Pharmacie Les Arcades, Rabat, Morocco", "city": "Rabat", "geocoded": false, "latitude": 0.0, "longitude": 0.0}, {"name": "Pharmacie Lotus", "phone": "0537281883", "address": "Pharmacie Lotus, Rabat, Morocco", "city": "Rabat", "geocoded": false, "latitude": 0.0, "longitude": 0.0}, {"name": "Pharmacie Carre Sante Beaute", "phone": "0537717127", "address": "Pharmacie Carre Sante Beaute, Rabat, Morocco", "city": "Rabat", "geocoded": false, "latitude": 0.0, "longitude": 0.0}, {"name": "Pharmacie de la sant\u00e9", "phone": "0537650252", "address": "Pharmacie de la sant\u00e9, Rabat, Morocco", "city": "Rabat", "geocoded": false, "latitude": 0.0, "longitude": 0.0}, {"name": "Pharmacie Azhar", "phone": "0537680817", "address": "Pharmacie Azhar, Rabat, Morocco", "city": "Rabat", "geocoded": false, "latitude": 0.0, "longitude": 0.0}, {"name": "Pharmacie El Wahda", "phone": "0537754991", "address": "Pharmacie El Wahda, Rabat, Morocco", "city": "Rabat", "geocoded": false, "latitude": 0.0, "longitude": 0.0}, {"name": "Pharmacie L'orangeraie Du Souissi", "phone": "0537650591", "address": "Pharmacie L'orangeraie Du Souissi, Rabat, Morocco", "city": "Rabat", "geocoded": false, "latitude": 0.0, "longitude": 0.0}, {"name": "Pharmacie AlBoustane", "phone": "0537799293", "address": "Pharmacie AlBoustane, Rabat, Morocco", "city": "Rabat", "geocoded": false, "latitude": 0.0, "longitude": 0.0}, {"name": "Pharmacie Bouchra Al Oum", "phone": "0537291245", "address": "Pharmacie Bouchra Al Oum, Rabat, Morocco", "city": "Rabat", "geocoded": false, "latitude": 0.0, "longitude": 0.0}, {"name": "Pharmacie Centrale", "phone": "0537724395", "address": "Pharmacie Centrale, Rabat, Morocco", "city": "Rabat", "geocoded": false, "latitude": 0.0, "longitude": 0.0}, {"name": "Pharmacie Anzi", "phone": "0537691313", "address": "Pharmacie Anzi, Rabat, Morocco", "city": "Rabat", "geocoded": false, "latitude": 0.0, "longitude": 0.0}, {"name": "Pharmacie Ya-sin", "phone": "0537754008", "address": "Pharmacie Ya-sin, Rabat, Morocco", "city": "Rabat", "geocoded": false, "latitude": 0.0, "longitude": 0.0}, {"name": "Pharmacie Belmahi", "phone": "0537722650", "address": "Pharmacie Belmahi, Rabat, Morocco", "city": "Rabat", "geocoded": false, "latitude": 0.0, "longitude": 0.0}, {"name": "Pharmacie Al Mithaliya", "phone": "0537795934", "address": "Pharmacie Al Mithaliya, Rabat, Morocco", "city": "Rabat", "geocoded": false, "latitude": 0.0, "longitude": 0.0}, {"name": "Pharmacie Universelle", "phone": "0808508679", "address": "Pharmacie Universelle, Rabat, Morocco", "city": "Rabat", "geocoded": false, "latitude": 0.0, "longitude": 0.0}, {"name": "Pharmacie Ryad Andalous", "phone": "0537564778", "address": "Pharmacie Ryad Andalous, Rabat, Morocco", "city": "Rabat", "geocoded": false, "latitude": 0.0, "longitude": 0.0}, {"name": "Pharmacie Rania", "phone": "0537564688", "address": "Pharmacie Rania, Rabat, Morocco", "city": "Rabat", "geocoded": false, "latitude": 0.0, "longitude": 0.0}, {"name": "Pharmacie Attaissir", "phone": "0537280296", "address": "Pharmacie Attaissir, Rabat, Morocco", "city": "Rabat", "geocoded": false, "latitude": 0.0, "longitude": 0.0}, {"name": "Pharmacie Ibn Nafis", "phone": "0537720657", "address": "Pharmacie Ibn Nafis, Rabat, Morocco", "city": "Rabat", "geocoded": false, "latitude": 0.0, "longitude": 0.0}, {"name": "Pharmacie des Oudaias", "phone": "0537734410", "address": "Pharmacie des Oudaias, Rabat, Morocco", "city": "Rabat", "geocoded": false, "latitude": 0.0, "longitude": 0.0}, {"name": "Pharmacie City Center", "phone": "0537564244", "address": "Pharmacie City Center, Rabat, Morocco", "city": "Rabat", "geocoded": false, "latitude": 0.0, "longitude": 0.0}, {"name": "Pharmacie Les Ministres D'agdal", "phone": "0537682562", "address": "Pharmacie Les Ministres D'agdal, Rabat, Morocco", "city": "Rabat", "geocoded": false, "latitude": 0.0, "longitude": 0.0}, {"name": "Pharmacie Rachad", "phone": "0537651496/0537753396", "address": "Pharmacie Rachad, Rabat, Morocco", "city": "Rabat", "geocoded": false, "latitude": 0.0, "longitude": 0.0}, {"name": "Pharmacie Takaddoum", "phone": "0537651496", "address": "Pharmacie Takaddoum, Rabat, Morocco", "city": "Rabat", "geocoded": false, "latitude": 0.0, "longitude": 0.0}, {"name": "Pharmacie Atta\u00efssir", "phone": "0537280296", "address": "Pharmacie Atta\u00efssir, Rabat, Morocco", "city": "Rabat", "geocoded": false, "latitude": 0.0, "longitude": 0.0}, {"name": "Pharmacie Chbanat", "phone": "0537290998", "address": "Pharmacie Chbanat, Rabat, Morocco", "city": "Rabat", "geocoded": false, "latitude": 0.0, "longitude": 0.0}, {"name": "Pharma Square", "phone": "0537910223", "address": "Pharma Square, Rabat, Morocco", "city": "Rabat", "geocoded": false, "latitude": 0.0, "longitude": 0.0}, {"name": "Pharmacie Benjelloun", "phone": "0537636864", "address": "Pharmacie Benjelloun, Rabat, Morocco", "city": "Rabat", "geocoded": false, "latitude": 0.0, "longitude": 0.0}, {"name": "Pharmacie Al Kawthar", "phone": "0537294769", "address": "Pharmacie Al Kawthar, Rabat, Morocco", "city": "Rabat", "geocoded": false, "latitude": 0.0, "longitude": 0.0}, {"name": "Pharmacie Errahma", "phone": "0537638226", "address": "Pharmacie Errahma, Rabat, Morocco", "city": "Rabat", "geocoded": false, "latitude": 0.0, "longitude": 0.0}, {"name": "Pharmacie Dahab", "phone": "0537851291", "address": "Pharmacie Dahab, Rabat, Morocco", "city": "Rabat", "geocoded": false, "latitude": 0.0, "longitude": 0.0}, {"name": "Pharmacie Abi Hourayra", "phone": "0537795072", "address": "Pharmacie Abi Hourayra, Rabat, Morocco", "city": "Rabat", "geocoded": false, "latitude": 0.0, "longitude": 0.0}, {"name": "Pharmacie Relais Des Medecins", "phone": "0537570106", "address": "Pharmacie Relais Des Medecins, Rabat, Morocco", "city": "Rabat", "geocoded": false, "latitude": 0.0, "longitude": 0.0}, {"name": "Pharmacie Nassim Ryad", "phone": "0537564691", "address": "Pharmacie Nassim Ryad, Rabat, Morocco", "city": "Rabat", "geocoded": false, "latitude": 0.0, "longitude": 0.0}, {"name": "Pharmacie Annour", "phone": "0537691180", "address": "Pharmacie Annour, Rabat, Morocco", "city": "Rabat", "geocoded": false, "latitude": 0.0, "longitude": 0.0}, {"name": "Pharmacie Al Waha", "phone": "0537639525", "address": "Pharmacie Al Waha, Rabat, Morocco", "city": "Rabat", "geocoded": false, "latitude": 0.0, "longitude": 0.0}, {"name": "Pharmacie Al Ighata", "phone": "0537792986", "address": "Pharmacie Al Ighata, Rabat, Morocco", "city": "Rabat", "geocoded": false, "latitude": 0.0, "longitude": 0.0}, {"name": "Pharmacie Al Hikma", "phone": "0537293392", "address": "Pharmacie Al Hikma, Rabat, Morocco", "city": "Rabat", "geocoded": false, "latitude": 0.0, "longitude": 0.0}, {"name": "Pharmacie Lacustre", "phone": "0537757878", "address": "Pharmacie Lacustre, Rabat, Morocco", "city": "Rabat", "geocoded": false, "latitude": 0.0, "longitude": 0.0}, {"name": "Pharmacie Des Oudayas", "phone": "0537734410", "address": "Pharmacie Des Oudayas, Rabat, Morocco", "city": "Rabat", "geocoded": false, "latitude": 0.0, "longitude": 0.0}, {"name": "Pharmacie Renaissance", "phone": "0537722422", "address": "Pharmacie Renaissance, Rabat, Morocco", "city": "Rabat", "geocoded": false, "latitude": 0.0, "longitude": 0.0}, {"name": "Pharmacie Mosquee Hay Ryad", "phone": "0537715085", "address": "Pharmacie Mosquee Hay Ryad, Rabat, Morocco", "city": "Rabat", "geocoded": false, "latitude": 0.0, "longitude": 0.0}, {"name": "Pharmacie Ksar Labhar", "phone": "0537297208", "address": "Pharmacie Ksar Labhar, Rabat, Morocco", "city": "Rabat", "geocoded": false, "latitude": 0.0, "longitude": 0.0}, {"name": "Pharmacie Lumiere", "phone": "0537666601", "address": "Pharmacie Lumiere, Rabat, Morocco", "city": "Rabat", "geocoded": false, "latitude": 0.0, "longitude": 0.0}, {"name": "Pharmacie des Cliniques", "phone": "0537203364", "address": "Pharmacie des Cliniques, Rabat, Morocco", "city": "Rabat", "geocoded": false, "latitude": 0.0, "longitude": 0.0}, {"name": "Pharmacie City Center Ryad", "phone": "0537563277", "address": "Pharmacie City Center Ryad, Rabat, Morocco", "city": "Rabat", "geocoded": false, "latitude": 0.0, "longitude": 0.0}, {"name": "Pharmacie Benjelloun", "phone": "0537636864", "address": "Pharmacie Benjelloun, Rabat, Morocco", "city": "Rabat", "geocoded": false, "latitude": 0.0, "longitude": 0.0}, {"name": "Pharmacie de la Marne", "phone": "0537764257", "address": "Pharmacie de la Marne, Rabat, Morocco", "city": "Rabat", "geocoded": false, "latitude": 0.0, "longitude": 0.0}, {"name": "Pharmacie Al Araar", "phone": "0537710627", "address": "Pharmacie Al Araar, Rabat, Morocco", "city": "Rabat", "geocoded": false, "latitude": 0.0, "longitude": 0.0}, {"name": "Pharmacie Bab Marrakech", "phone": "0537779500", "address": "Pharmacie Bab Marrakech, Rabat, Morocco", "city": "Rabat", "geocoded": false, "latitude": 0.0, "longitude": 0.0}, {"name": "Pharmacie Anasse", "phone": "0537298899", "address": "Pharmacie Anasse, Rabat, Morocco", "city": "Rabat", "geocoded": false, "latitude": 0.0, "longitude": 0.0}, {"name": "Pharmacie L'oasis", "phone": "0537682503", "address": "Pharmacie L'oasis, Rabat, Morocco", "city": "Rabat", "geocoded": false, "latitude": 0.0, "longitude": 0.0}, {"name": "Pharmacie Arrayhane", "phone": "0537714676", "address": "Pharmacie Arrayhane, Rabat, Morocco", "city": "Rabat", "geocoded": false, "latitude": 0.0, "longitude": 0.0}, {"name": "Pharmacie ElAtlas", "phone": "0537692359", "address": "Pharmacie ElAtlas, Rabat, Morocco", "city": "Rabat", "geocoded": false, "latitude": 0.0, "longitude": 0.0}, {"name": "Pharmacie Aboubakr Assedik", "phone": "0537651874", "address": "Pharmacie Aboubakr Assedik, Rabat, Morocco", "city": "Rabat", "geocoded": false, "latitude": 0.0, "longitude": 0.0}, {"name": "Pharmacie Chems", "phone": "0537699746", "address": "Pharmacie Chems, Rabat, Morocco", "city": "Rabat", "geocoded": false, "latitude": 0.0, "longitude": 0.0}, {"name": "La Grande Pharmacie", "phone": "0537709148", "address": "La Grande Pharmacie, Rabat, Morocco", "city": "Rabat", "geocoded": false, "latitude": 0.0, "longitude": 0.0}, {"name": "Pharmacie Nakhil", "phone": "0537714747", "address": "Pharmacie Nakhil, Rabat, Morocco", "city": "Rabat", "geocoded": false, "latitude": 0.0, "longitude": 0.0}, {"name": "Pharmacie Avenue D\u2019alger Hassan", "phone": "0537726323", "address": "Pharmacie Avenue D\u2019alger Hassan, Rabat, Morocco", "city": "Rabat", "geocoded": false, "latitude": 0.0, "longitude": 0.0}, {"name": "Pharmacie Nadia", "phone": "0537692923", "address": "Pharmacie Nadia, Rabat, Morocco", "city": "Rabat", "geocoded": false, "latitude": 0.0, "longitude": 0.0}, {"name": "Pharmacie Alkhawarizmi", "phone": "0537791179", "address": "Pharmacie Alkhawarizmi, Rabat, Morocco", "city": "Rabat", "geocoded": false, "latitude": 0.0, "longitude": 0.0}, {"name": "Pharmacie Tansift", "phone": "0537681676", "address": "Pharmacie Tansift, Rabat, Morocco", "city": "Rabat", "geocoded": false, "latitude": 0.0, "longitude": 0.0}, {"name": "Pharmacie Azur", "phone": "0537561592", "address": "Pharmacie Azur, Rabat, Morocco", "city": "Rabat", "geocoded": false, "latitude": 0.0, "longitude": 0.0}, {"name": "Pharmacie de la R\u00e9sistance", "phone": "0537724055", "address": "Pharmacie de la R\u00e9sistance, Rabat, Morocco", "city": "Rabat", "geocoded": false, "latitude": 0.0, "longitude": 0.0}, {"name": "Pharmacie Misk", "phone": "0537712520", "address": "Pharmacie Misk, Rabat, Morocco", "city": "Rabat", "geocoded": false, "latitude": 0.0, "longitude": 0.0}, {"name": "Pharmacie Al Amana", "phone": "0537262773", "address": "Pharmacie Al Amana, Rabat, Morocco", "city": "Rabat", "geocoded": false, "latitude": 0.0, "longitude": 0.0}, {"name": "Pharmacie Ibn Rochd", "phone": "0537690119", "address": "Pharmacie Ibn Rochd, Rabat, Morocco", "city": "Rabat", "geocoded": false, "latitude": 0.0, "longitude": 0.0}, {"name": "Pharmacie ElInbiat", "phone": "0537630315", "address": "Pharmacie ElInbiat, Rabat, Morocco", "city": "Rabat", "geocoded": false, "latitude": 0.0, "longitude": 0.0}, {"name": "Pharmacie Marjane Ryad", "phone": "0537714456", "address": "Pharmacie Marjane Ryad, Rabat, Morocco", "city": "Rabat", "geocoded": false, "latitude": 0.0, "longitude": 0.0}, {"name": "Pharmacie Akrache", "phone": "0537755896", "address": "Pharmacie Akrache, Rabat, Morocco", "city": "Rabat", "geocoded": false, "latitude": 0.0, "longitude": 0.0}, {"name": "Pharmacie El Ighata", "phone": "0537792986", "address": "Pharmacie El Ighata, Rabat, Morocco", "city": "Rabat", "geocoded": false, "latitude": 0.0, "longitude": 0.0}, {"name": "Pharmacie Des Orangers", "phone": "0537260227", "address": "Pharmacie Des Orangers, Rabat, Morocco", "city": "Rabat", "geocoded": false, "latitude": 0.0, "longitude": 0.0}, {"name": "Pharmacie des Facult\u00e9s", "phone": "0537773440", "address": "Pharmacie des Facult\u00e9s, Rabat, Morocco", "city": "Rabat", "geocoded": false, "latitude": 0.0, "longitude": 0.0}, {"name": "Pharmacie Salsabil", "phone": "0537712303", "address": "Pharmacie Salsabil, Rabat, Morocco", "city": "Rabat", "geocoded": false, "latitude": 0.0, "longitude": 0.0}, {"name": "Pharmacie Marjane Ryad", "phone": "0537714456", "address": "Pharmacie Marjane Ryad, Rabat, Morocco", "city": "Rabat", "geocoded": false, "latitude": 0.0, "longitude": 0.0}, {"name": "Pharmacie Des Facultes", "phone": "0537773440", "address": "Pharmacie Des Facultes, Rabat, Morocco", "city": "Rabat", "geocoded": false, "latitude": 0.0, "longitude": 0.0}, {"name": "Pharmacie Ar-rahman", "phone": "0537282961", "address": "Pharmacie Ar-rahman, Rabat, Morocco", "city": "Rabat", "geocoded": false, "latitude": 0.0, "longitude": 0.0}, {"name": "Pharmacie de la mosqu\u00e9e hay Ryad", "phone": "0537715085", "address": "Pharmacie de la mosqu\u00e9e hay Ryad, Rabat, Morocco", "city": "Rabat", "geocoded": false, "latitude": 0.0, "longitude": 0.0}, {"name": "Pharmacie De La Marne", "phone": "0537764257", "address": "Pharmacie De La Marne, Rabat, Morocco", "city": "Rabat", "geocoded": false, "latitude": 0.0, "longitude": 0.0}, {"name": "Pharmacie Al Fadila", "phone": "0537690742", "address": "Pharmacie Al Fadila, Rabat, Morocco", "city": "Rabat", "geocoded": false, "latitude": 0.0, "longitude": 0.0}, {"name": "Pharmacie Bekkari", "phone": "0537794184", "address": "Pharmacie Bekkari, Rabat, Morocco", "city": "Rabat", "geocoded": false, "latitude": 0.0, "longitude": 0.0}, {"name": "Pharmacie Al Faraj", "phone": "0537692746", "address": "Pharmacie Al Faraj, Rabat, Morocco", "city": "Rabat", "geocoded": false, "latitude": 0.0, "longitude": 0.0}, {"name": "Pharmacie Jnane Souissi", "phone": "0537630404", "address": "Pharmacie Jnane Souissi, Rabat, Morocco", "city": "Rabat", "geocoded": false, "latitude": 0.0, "longitude": 0.0}, {"name": "Pharmacie Centre Cheques Postaux", "phone": "0537726216", "address": "Pharmacie Centre Cheques Postaux, Rabat, Morocco", "city": "Rabat", "geocoded": false, "latitude": 0.0, "longitude": 0.0}, {"name": "Pharmacie l'Avenir", "phone": "0537798871", "address": "Pharmacie l'Avenir, Rabat, Morocco", "city": "Rabat", "geocoded": false, "latitude": 0.0, "longitude": 0.0}, {"name": "Pharmacie Narjis", "phone": "0537560590", "address": "Pharmacie Narjis, Rabat, Morocco", "city": "Rabat", "geocoded": false, "latitude": 0.0, "longitude": 0.0}, {"name": "Pharmacie Renaissance", "phone": "0537722422", "address": "Pharmacie Renaissance, Rabat, Morocco", "city": "Rabat", "geocoded": false, "latitude": 0.0, "longitude": 0.0}, {"name": "Pharmacie Imane - Ex Benyahya", "phone": "0537693900", "address": "Pharmacie Imane - Ex Benyahya, Rabat, Morocco", "city": "Rabat", "geocoded": false, "latitude": 0.0, "longitude": 0.0}, {"name": "Pharmacie Elkouass", "phone": "0537794099", "address": "Pharmacie Elkouass, Rabat, Morocco", "city": "Rabat", "geocoded": false, "latitude": 0.0, "longitude": 0.0}, {"name": "Pharmacie Almaghreb Alarabi", "phone": "0537732637", "address": "Pharmacie Almaghreb Alarabi, Rabat, Morocco", "city": "Rabat", "geocoded": false, "latitude": 0.0, "longitude": 0.0}, {"name": "Pharmacie Zahwa", "phone": "0537751019", "address": "Pharmacie Zahwa, Rabat, Morocco", "city": "Rabat", "geocoded": false, "latitude": 0.0, "longitude": 0.0}, {"name": "Pharmacie Assabah", "phone": "0537790375", "address": "Pharmacie Assabah, Rabat, Morocco", "city": "Rabat", "geocoded": false, "latitude": 0.0, "longitude": 0.0}, {"name": "Pharmacie Mourad", "phone": "0537695390", "address": "Pharmacie Mourad, Rabat, Morocco", "city": "Rabat", "geocoded": false, "latitude": 0.0, "longitude": 0.0}, {"name": "Pharmacie la Fidelit\u00e9", "phone": "0537710815", "address": "Pharmacie la Fidelit\u00e9, Rabat, Morocco", "city": "Rabat", "geocoded": false, "latitude": 0.0, "longitude": 0.0}, {"name": "Pharmacie de la Muraille", "phone": "0537708877", "address": "Pharmacie de la Muraille, Rabat, Morocco", "city": "Rabat", "geocoded": false, "latitude": 0.0, "longitude": 0.0}, {"name": "Pharmacie Ar-rahman", "phone": "0537282961", "address": "Pharmacie Ar-rahman, Rabat, Morocco", "city": "Rabat", "geocoded": false, "latitude": 0.0, "longitude": 0.0}, {"name": "Pharmacie Ennaim", "phone": "0530027807", "address": "Pharmacie Ennaim, Rabat, Morocco", "city": "Rabat", "geocoded": false, "latitude": 0.0, "longitude": 0.0}, {"name": "Pharmacie Al Khair", "phone": "0537695243", "address": "Pharmacie Al Khair, Rabat, Morocco", "city": "Rabat", "geocoded": false, "latitude": 0.0, "longitude": 0.0}, {"name": "Pharmacie Nahda", "phone": "0537750641", "address": "Pharmacie Nahda, Rabat, Morocco", "city": "Rabat", "geocoded": false, "latitude": 0.0, "longitude": 0.0}, {"name": "Pharmacie Tour Hassan", "phone": "0537720250", "address": "Pharmacie Tour Hassan, Rabat, Morocco", "city": "Rabat", "geocoded": false, "latitude": 0.0, "longitude": 0.0}, {"name": "Pharmacie Berbich", "phone": "0537260772", "address": "Pharmacie Berbich, Rabat, Morocco", "city": "Rabat", "geocoded": false, "latitude": 0.0, "longitude": 0.0}, {"name": "Pharmacie Layachi Ex Ziady", "phone": "0537693015", "address": "Pharmacie Layachi Ex Ziady, Rabat, Morocco", "city": "Rabat", "geocoded": false, "latitude": 0.0, "longitude": 0.0}, {"name": "Pharmacie Al Boustane", "phone": "0537799293", "address": "Pharmacie Al Boustane, Rabat, Morocco", "city": "Rabat", "geocoded": false, "latitude": 0.0, "longitude": 0.0}, {"name": "Pharmacie Hay El Fath", "phone": "0703010203", "address": "Pharmacie Hay El Fath, Rabat, Morocco", "city": "Rabat", "geocoded": false, "latitude": 0.0, "longitude": 0.0}, {"name": "Pharmacie Erraha", "phone": "0537561393", "address": "Pharmacie Erraha, Rabat, Morocco", "city": "Rabat", "geocoded": false, "latitude": 0.0, "longitude": 0.0}, {"name": "Pharmacie Al Houda", "phone": "0537753451", "address": "Pharmacie Al Houda, Rabat, Morocco", "city": "Rabat", "geocoded": false, "latitude": 0.0, "longitude": 0.0}, {"name": "Pharmacie Mabella", "phone": "0537651468", "address": "Pharmacie Mabella, Rabat, Morocco", "city": "Rabat", "geocoded": false, "latitude": 0.0, "longitude": 0.0}, {"name": "Pharmacie El Irfane", "phone": "0537686317", "address": "Pharmacie El Irfane, Rabat, Morocco", "city": "Rabat", "geocoded": false, "latitude": 0.0, "longitude": 0.0}, {"name": "Pharmacie Al Jazaa", "phone": "0537721002", "address": "Pharmacie Al Jazaa, Rabat, Morocco", "city": "Rabat", "geocoded": false, "latitude": 0.0, "longitude": 0.0}, {"name": "Pharmacie Al Amane Aloe Vera", "phone": "0537293647", "address": "Pharmacie Al Amane Aloe Vera, Rabat, Morocco", "city": "Rabat", "geocoded": false, "latitude": 0.0, "longitude": 0.0}, {"name": "Pharmacie Aljaza\u00e2", "phone": "0537721002", "address": "Pharmacie Aljaza\u00e2, Rabat, Morocco", "city": "Rabat", "geocoded": false, "latitude": 0.0, "longitude": 0.0}, {"name": "Pharmacie Ben Omar", "phone": "0537769930", "address": "Pharmacie Ben Omar, Rabat, Morocco", "city": "Rabat", "geocoded": false, "latitude": 0.0, "longitude": 0.0}, {"name": "Pharmacie des Orangers", "phone": "0537723053", "address": "Pharmacie des Orangers, Rabat, Morocco", "city": "Rabat", "geocoded": false, "latitude": 0.0, "longitude": 0.0}, {"name": "Pharmacie Sanaoubar Riad", "phone": "0537717110", "address": "Pharmacie Sanaoubar Riad, Rabat, Morocco", "city": "Rabat", "geocoded": false, "latitude": 0.0, "longitude": 0.0}, {"name": "Pharmacie Dahab", "phone": "0537697917", "address": "Pharmacie Dahab, Rabat, Morocco", "city": "Rabat", "geocoded": false, "latitude": 0.0, "longitude": 0.0}, {"name": "Pharmacie Al Mithaliya Ex: Ideal", "phone": "0537795934", "address": "Pharmacie Al Mithaliya Ex: Ideal, Rabat, Morocco", "city": "Rabat", "geocoded": false, "latitude": 0.0, "longitude": 0.0}, {"name": "Pharmacie Centre de Transfusion Sanguine", "phone": "0537692469", "address": "Pharmacie Centre de Transfusion Sanguine, Rabat, Morocco", "city": "Rabat", "geocoded": false, "latitude": 0.0, "longitude": 0.0}, {"name": "Pharmacie AlAzhar", "phone": "0537799107", "address": "Pharmacie AlAzhar, Rabat, Morocco", "city": "Rabat", "geocoded": false, "latitude": 0.0, "longitude": 0.0}, {"name": "Pharmacie Al Melia", "phone": "0537759202", "address": "Pharmacie Al Melia, Rabat, Morocco", "city": "Rabat", "geocoded": false, "latitude": 0.0, "longitude": 0.0}, {"name": "Pharmacie Gharnata", "phone": "0537281207", "address": "Pharmacie Gharnata, Rabat, Morocco", "city": "Rabat", "geocoded": false, "latitude": 0.0, "longitude": 0.0}, {"name": "Pharmacie Ibn Yassine", "phone": "0537772743", "address": "Pharmacie Ibn Yassine, Rabat, Morocco", "city": "Rabat", "geocoded": false, "latitude": 0.0, "longitude": 0.0}, {"name": "Pharmacie Louka Pharma", "phone": "0537634912", "address": "Pharmacie Louka Pharma, Rabat, Morocco", "city": "Rabat", "geocoded": false, "latitude": 0.0, "longitude": 0.0}, {"name": "Pharmacie Al Minbat", "phone": "0537751607", "address": "Pharmacie Al Minbat, Rabat, Morocco", "city": "Rabat", "geocoded": false, "latitude": 0.0, "longitude": 0.0}, {"name": "Pharmacie  Rachad Takaddoum", "phone": "0537651496/0537753396", "address": "Pharmacie  Rachad Takaddoum, Rabat, Morocco", "city": "Rabat", "geocoded": false, "latitude": 0.0, "longitude": 0.0}, {"name": "Pharmacie Zahwa", "phone": "0537751019", "address": "Pharmacie Zahwa, Rabat, Morocco", "city": "Rabat", "geocoded": false, "latitude": 0.0, "longitude": 0.0}, {"name": "Pharmacie Layachi", "phone": "0537693015", "address": "Pharmacie Layachi, Rabat, Morocco", "city": "Rabat", "geocoded": false, "latitude": 0.0, "longitude": 0.0}, {"name": "Pharmacie Al Mountalak", "phone": "0537294480", "address": "Pharmacie Al Mountalak, Rabat, Morocco", "city": "Rabat", "geocoded": false, "latitude": 0.0, "longitude": 0.0}, {"name": "Pharmacie Al Masbah Al Kabir", "phone": "0537290673", "address": "Pharmacie Al Masbah Al Kabir, Rabat, Morocco", "city": "Rabat", "geocoded": false, "latitude": 0.0, "longitude": 0.0}, {"name": "Pharmacie Mega Mall", "phone": "0537639371", "address": "Pharmacie Mega Mall, Rabat, Morocco", "city": "Rabat", "geocoded": false, "latitude": 0.0, "longitude": 0.0}, {"name": "Pharmacie Hyper Carrefour (majipharma)", "phone": "0537755555", "address": "Pharmacie Hyper Carrefour (majipharma), Rabat, Morocco", "city": "Rabat", "geocoded": false, "latitude": 0.0, "longitude": 0.0}, {"name": "Pharmacie El Hanae", "phone": "0537761695", "address": "Pharmacie El Hanae, Rabat, Morocco", "city": "Rabat", "geocoded": false, "latitude": 0.0, "longitude": 0.0}, {"name": "Pharmacie Des Zaers", "phone": "0537752187", "address": "Pharmacie Des Zaers, Rabat, Morocco", "city": "Rabat", "geocoded": false, "latitude": 0.0, "longitude": 0.0}, {"name": "Pharmacie Assorour", "phone": "0537758857", "address": "Pharmacie Assorour, Rabat, Morocco", "city": "Rabat", "geocoded": false, "latitude": 0.0, "longitude": 0.0}, {"name": "Pharmacie Rhaouti", "phone": "0537772324", "address": "Pharmacie Rhaouti, Rabat, Morocco", "city": "Rabat", "geocoded": false, "latitude": 0.0, "longitude": 0.0}, {"name": "Pharmacie Al Maghreb Al Arabi", "phone": "0537732637", "address": "Pharmacie Al Maghreb Al Arabi, Rabat, Morocco", "city": "Rabat", "geocoded": false, "latitude": 0.0, "longitude": 0.0}, {"name": "Pharmacie Du Croissant", "phone": "0537690423", "address": "Pharmacie Du Croissant, Rabat, Morocco", "city": "Rabat", "geocoded": false, "latitude": 0.0, "longitude": 0.0}, {"name": "Pharmacie Al Bouchra", "phone": "0537794344", "address": "Pharmacie Al Bouchra, Rabat, Morocco", "city": "Rabat", "geocoded": false, "latitude": 0.0, "longitude": 0.0}, {"name": "Pharmacie Choukroallah", "phone": "0537792355", "address": "Pharmacie Choukroallah, Rabat, Morocco", "city": "Rabat", "geocoded": false, "latitude": 0.0, "longitude": 0.0}, {"name": "Pharmacie El Mouna", "phone": "0537290673", "address": "Pharmacie El Mouna, Rabat, Morocco", "city": "Rabat", "geocoded": false, "latitude": 0.0, "longitude": 0.0}, {"name": "Pharmacie Alam", "phone": "0537775269", "address": "Pharmacie Alam, Rabat, Morocco", "city": "Rabat", "geocoded": false, "latitude": 0.0, "longitude": 0.0}, {"name": "Pharmacie Belmahi", "phone": "0537722650", "address": "Pharmacie Belmahi, Rabat, Morocco", "city": "Rabat", "geocoded": false, "latitude": 0.0, "longitude": 0.0}, {"name": "Pharmacie Youssoufia", "phone": "0537651027", "address": "Pharmacie Youssoufia, Rabat, Morocco", "city": "Rabat", "geocoded": false, "latitude": 0.0, "longitude": 0.0}, {"name": "Pharmacie Du Chellah", "phone": "0537724723", "address": "Pharmacie Du Chellah, Rabat, Morocco", "city": "Rabat", "geocoded": false, "latitude": 0.0, "longitude": 0.0}, {"name": "Pharmacie Souissi", "phone": "0537753939", "address": "Pharmacie Souissi, Rabat, Morocco", "city": "Rabat", "geocoded": false, "latitude": 0.0, "longitude": 0.0}, {"name": "Pharmacie du Golf", "phone": "0537755257", "address": "Pharmacie du Golf, Rabat, Morocco", "city": "Rabat", "geocoded": false, "latitude": 0.0, "longitude": 0.0}, {"name": "La grande pharmacie", "phone": "0537709148", "address": "La grande pharmacie, Rabat, Morocco", "city": "Rabat", "geocoded": false, "latitude": 0.0, "longitude": 0.0}, {"name": "Pharmacie les Peupliers", "phone": "0537711158", "address": "Pharmacie les Peupliers, Rabat, Morocco", "city": "Rabat", "geocoded": false, "latitude": 0.0, "longitude": 0.0}, {"name": "Pharmacie R\u00e9sidence la Corniche Marjolain", "phone": "0537294770", "address": "Pharmacie R\u00e9sidence la Corniche Marjolain, Rabat, Morocco", "city": "Rabat", "geocoded": false, "latitude": 0.0, "longitude": 0.0}, {"name": "Pharmacie La Rosee", "phone": "0537639266", "address": "Pharmacie La Rosee, Rabat, Morocco", "city": "Rabat", "geocoded": false, "latitude": 0.0, "longitude": 0.0}, {"name": "Pharmacie Al-Amana", "phone": "0537262773", "address": "Pharmacie Al-Amana, Rabat, Morocco", "city": "Rabat", "geocoded": false, "latitude": 0.0, "longitude": 0.0}, {"name": "Pharmacie Normale", "phone": "0537707765", "address": "Pharmacie Normale, Rabat, Morocco", "city": "Rabat", "geocoded": false, "latitude": 0.0, "longitude": 0.0}, {"name": "Pharmacie des Cit\u00e9s", "phone": "0537560335", "address": "Pharmacie des Cit\u00e9s, Rabat, Morocco", "city": "Rabat", "geocoded": false, "latitude": 0.0, "longitude": 0.0}, {"name": "Pharmacie Ibn Rochd", "phone": "0537690119", "address": "Pharmacie Ibn Rochd, Rabat, Morocco", "city": "Rabat", "geocoded": false, "latitude": 0.0, "longitude": 0.0}, {"name": "Pharmacie Warda", "phone": "0537659977", "address": "Pharmacie Warda, Rabat, Morocco", "city": "Rabat", "geocoded": false, "latitude": 0.0, "longitude": 0.0}, {"name": "Pharmacie AlBouchra", "phone": "0537794344", "address": "Pharmacie AlBouchra, Rabat, Morocco", "city": "Rabat", "geocoded": false, "latitude": 0.0, "longitude": 0.0}, {"name": "Pharmacie des R\u00e9sidences", "phone": "0537281197", "address": "Pharmacie des R\u00e9sidences, Rabat, Morocco", "city": "Rabat", "geocoded": false, "latitude": 0.0, "longitude": 0.0}, {"name": "Pharmacie Moderne", "phone": "0537772354", "address": "Pharmacie Moderne, Rabat, Morocco", "city": "Rabat", "geocoded": false, "latitude": 0.0, "longitude": 0.0}, {"name": "Pharmacie Mimosas", "phone": "0537292000", "address": "Pharmacie Mimosas, Rabat, Morocco", "city": "Rabat", "geocoded": false, "latitude": 0.0, "longitude": 0.0}, {"name": "Pharmacie Souika", "phone": "0537703036", "address": "Pharmacie Souika, Rabat, Morocco", "city": "Rabat", "geocoded": false, "latitude": 0.0, "longitude": 0.0}, {"name": "Pharmacie du Mechouar", "phone": "0537760569", "address": "Pharmacie du Mechouar, Rabat, Morocco", "city": "Rabat", "geocoded": false, "latitude": 0.0, "longitude": 0.0}, {"name": "Pharmacie AlAzhar", "phone": "0537799107", "address": "Pharmacie AlAzhar, Rabat, Morocco", "city": "Rabat", "geocoded": false, "latitude": 0.0, "longitude": 0.0}, {"name": "Pharmacie Elighata", "phone": "0537792986", "address": "Pharmacie Elighata, Rabat, Morocco", "city": "Rabat", "geocoded": false, "latitude": 0.0, "longitude": 0.0}, {"name": "Pharmacie ElOumnia", "phone": "0537657325", "address": "Pharmacie ElOumnia, Rabat, Morocco", "city": "Rabat", "geocoded": false, "latitude": 0.0, "longitude": 0.0}, {"name": "Pharmacie Alioua", "phone": "0537759809", "address": "Pharmacie Alioua, Rabat, Morocco", "city": "Rabat", "geocoded": false, "latitude": 0.0, "longitude": 0.0}, {"name": "Pharmacie Fatima-Zahraa", "phone": "0537758973", "address": "Pharmacie Fatima-Zahraa, Rabat, Morocco", "city": "Rabat", "geocoded": false, "latitude": 0.0, "longitude": 0.0}, {"name": "Pharmacie Bismillah", "phone": "0537636375", "address": "Pharmacie Bismillah, Rabat, Morocco", "city": "Rabat", "geocoded": false, "latitude": 0.0, "longitude": 0.0}, {"name": "Pharmacie Guelzim", "phone": "0537754630", "address": "Pharmacie Guelzim, Rabat, Morocco", "city": "Rabat", "geocoded": false, "latitude": 0.0, "longitude": 0.0}, {"name": "Pharmacie l'enfant", "phone": "0537654128", "address": "Pharmacie l'enfant, Rabat, Morocco", "city": "Rabat", "geocoded": false, "latitude": 0.0, "longitude": 0.0}, {"name": "Pharmacie Chem's", "phone": "0537230755", "address": "Pharmacie Chem's, Rabat, Morocco", "city": "Rabat", "geocoded": false, "latitude": 0.0, "longitude": 0.0}, {"name": "Pharmacie Ibn Toumerte", "phone": "0537702095", "address": "Pharmacie Ibn Toumerte, Rabat, Morocco", "city": "Rabat", "geocoded": false, "latitude": 0.0, "longitude": 0.0}, {"name": "Pharmacie Cherqi", "phone": "0537207474", "address": "Pharmacie Cherqi, Rabat, Morocco", "city": "Rabat", "geocoded": false, "latitude": 0.0, "longitude": 0.0}, {"name": "Pharmacie les colonnes", "phone": "0537660618", "address": "Pharmacie les colonnes, Rabat, Morocco", "city": "Rabat", "geocoded": false, "latitude": 0.0, "longitude": 0.0}, {"name": "Pharmacie Gharbia", "phone": "0537201650", "address": "Pharmacie Gharbia, Rabat, Morocco", "city": "Rabat", "geocoded": false, "latitude": 0.0, "longitude": 0.0}, {"name": "Pharmacie Berbich", "phone": "0537260772", "address": "Pharmacie Berbich, Rabat, Morocco", "city": "Rabat", "geocoded": false, "latitude": 0.0, "longitude": 0.0}, {"name": "Pharmacie Al-Amana", "phone": "0537262773", "address": "Pharmacie Al-Amana, Rabat, Morocco", "city": "Rabat", "geocoded": false, "latitude": 0.0, "longitude": 0.0}, {"name": "Pharmacie Al Araar", "phone": "0537710627", "address": "Pharmacie Al Araar, Rabat, Morocco", "city": "Rabat", "geocoded": false, "latitude": 0.0, "longitude": 0.0}, {"name": "Pharmacie La Rosee", "phone": "0537639266", "address": "Pharmacie La Rosee, Rabat, Morocco", "city": "Rabat", "geocoded": false, "latitude": 0.0, "longitude": 0.0}, {"name": "Pharmacie Mourad", "phone": "0537695390", "address": "Pharmacie Mourad, Rabat, Morocco", "city": "Rabat", "geocoded": false, "latitude": 0.0, "longitude": 0.0}, {"name": "Pharmacie hay AlFarah", "phone": "0537750603", "address": "Pharmacie hay AlFarah, Rabat, Morocco", "city": "Rabat", "geocoded": false, "latitude": 0.0, "longitude": 0.0}, {"name": "Pharmacie Sanaoubar", "phone": "0537717110", "address": "Pharmacie Sanaoubar, Rabat, Morocco", "city": "Rabat", "geocoded": false, "latitude": 0.0, "longitude": 0.0}, {"name": "Pharmacie l'Orchid\u00e9e", "phone": "0537716381", "address": "Pharmacie l'Orchid\u00e9e, Rabat, Morocco", "city": "Rabat", "geocoded": false, "latitude": 0.0, "longitude": 0.0}, {"name": "Pharmacie Bir Kacem", "phone": "0537658820", "address": "Pharmacie Bir Kacem, Rabat, Morocco", "city": "Rabat", "geocoded": false, "latitude": 0.0, "longitude": 0.0}, {"name": "Pharmacie Ibn Hajar", "phone": "0537680687", "address": "Pharmacie Ibn Hajar, Rabat, Morocco", "city": "Rabat", "geocoded": false, "latitude": 0.0, "longitude": 0.0}, {"name": "Pharmacie la Pin\u00e8de", "phone": "0537630706", "address": "Pharmacie la Pin\u00e8de, Rabat, Morocco", "city": "Rabat", "geocoded": false, "latitude": 0.0, "longitude": 0.0}, {"name": "Pharmacie de l'aviation", "phone": "0537631224", "address": "Pharmacie de l'aviation, Rabat, Morocco", "city": "Rabat", "geocoded": false, "latitude": 0.0, "longitude": 0.0}, {"name": "F\u00e9d\u00e9ration Nationale des Syndicats des Pharmaciens du Maroc (F.n.s.p.m.)", "phone": "0537713236", "address": "F\u00e9d\u00e9ration Nationale des Syndicats des Pharmaciens du Maroc (F.n.s.p.m.), Rabat, Morocco", "city": "Rabat", "geocoded": false, "latitude": 0.0, "longitude": 0.0}, {"name": "Pharmacie du Mechouar", "phone": "0537760569", "address": "Pharmacie du Mechouar, Rabat, Morocco", "city": "Rabat", "geocoded": false, "latitude": 0.0, "longitude": 0.0}, {"name": "Pharmacie AlHamd", "phone": "0537294637", "address": "Pharmacie AlHamd, Rabat, Morocco", "city": "Rabat", "geocoded": false, "latitude": 0.0, "longitude": 0.0}, {"name": "Pharmacie Souk Tahti", "phone": "0537205592", "address": "Pharmacie Souk Tahti, Rabat, Morocco", "city": "Rabat", "geocoded": false, "latitude": 0.0, "longitude": 0.0}, {"name": "Pharmacie Al Kawthar", "phone": "0537294769", "address": "Pharmacie Al Kawthar, Rabat, Morocco", "city": "Rabat", "geocoded": false, "latitude": 0.0, "longitude": 0.0}, {"name": "Pharmacie Soundous", "phone": "0537560021", "address": "Pharmacie Soundous, Rabat, Morocco", "city": "Rabat", "geocoded": false, "latitude": 0.0, "longitude": 0.0}, {"name": "Pharmacie ElGuich", "phone": "0537561821", "address": "Pharmacie ElGuich, Rabat, Morocco", "city": "Rabat", "geocoded": false, "latitude": 0.0, "longitude": 0.0}, {"name": "Pharmacie Beni Snassen", "phone": "0537757672", "address": "Pharmacie Beni Snassen, Rabat, Morocco", "city": "Rabat", "geocoded": false, "latitude": 0.0, "longitude": 0.0}, {"name": "Pharmacie Ryad", "phone": "0537710681", "address": "Pharmacie Ryad, Rabat, Morocco", "city": "Rabat", "geocoded": false, "latitude": 0.0, "longitude": 0.0}, {"name": "Pharmacie Hassania", "phone": "0537657429", "address": "Pharmacie Hassania, Rabat, Morocco", "city": "Rabat", "geocoded": false, "latitude": 0.0, "longitude": 0.0}, {"name": "Pharmacie les Lilas", "phone": "0537756273", "address": "Pharmacie les Lilas, Rabat, Morocco", "city": "Rabat", "geocoded": false, "latitude": 0.0, "longitude": 0.0}, {"name": "Pharmacie Guennoun", "phone": "0537698002", "address": "Pharmacie Guennoun, Rabat, Morocco", "city": "Rabat", "geocoded": false, "latitude": 0.0, "longitude": 0.0}, {"name": "Pharmacie Zitoune", "phone": "0537712939", "address": "Pharmacie Zitoune, Rabat, Morocco", "city": "Rabat", "geocoded": false, "latitude": 0.0, "longitude": 0.0}, {"name": "Pharmacie Safiya", "phone": "0537713443", "address": "Pharmacie Safiya, Rabat, Morocco", "city": "Rabat", "geocoded": false, "latitude": 0.0, "longitude": 0.0}, {"name": "Pharmacie Iklil Ryad", "phone": "0537713868", "address": "Pharmacie Iklil Ryad, Rabat, Morocco", "city": "Rabat", "geocoded": false, "latitude": 0.0, "longitude": 0.0}, {"name": "Pharmacie Ya-sin", "phone": "0537754008", "address": "Pharmacie Ya-sin, Rabat, Morocco", "city": "Rabat", "geocoded": false, "latitude": 0.0, "longitude": 0.0}, {"name": "Pharmacie Abtal", "phone": "0537653710", "address": "Pharmacie Abtal, Rabat, Morocco", "city": "Rabat", "geocoded": false, "latitude": 0.0, "longitude": 0.0}, {"name": "Pharmacie Alosra", "phone": "0537759559", "address": "Pharmacie Alosra, Rabat, Morocco", "city": "Rabat", "geocoded": false, "latitude": 0.0, "longitude": 0.0}, {"name": "Pharmacie hay Bouhlal", "phone": "0537297717", "address": "Pharmacie hay Bouhlal, Rabat, Morocco", "city": "Rabat", "geocoded": false, "latitude": 0.0, "longitude": 0.0}, {"name": "Pharmacie gare Agdal", "phone": "0537774220", "address": "Pharmacie gare Agdal, Rabat, Morocco", "city": "Rabat", "geocoded": false, "latitude": 0.0, "longitude": 0.0}, {"name": "Pharmacie ElJoulane", "phone": "0537756756", "address": "Pharmacie ElJoulane, Rabat, Morocco", "city": "Rabat", "geocoded": false, "latitude": 0.0, "longitude": 0.0}, {"name": "Pharmacie ElInbiat", "phone": "0537630315", "address": "Pharmacie ElInbiat, Rabat, Morocco", "city": "Rabat", "geocoded": false, "latitude": 0.0, "longitude": 0.0}, {"name": "Pharmacie ElMouna", "phone": "0537290672", "address": "Pharmacie ElMouna, Rabat, Morocco", "city": "Rabat", "geocoded": false, "latitude": 0.0, "longitude": 0.0}, {"name": "Pharmacie Mosqu\u00e9e Karrakchou", "phone": "0537759515", "address": "Pharmacie Mosqu\u00e9e Karrakchou, Rabat, Morocco", "city": "Rabat", "geocoded": false, "latitude": 0.0, "longitude": 0.0}, {"name": "Pharmacie Yacoub ElMansour", "phone": "0537294841", "address": "Pharmacie Yacoub ElMansour, Rabat, Morocco", "city": "Rabat", "geocoded": false, "latitude": 0.0, "longitude": 0.0}, {"name": "Pharmacie des R\u00e9sidences", "phone": "0537281197", "address": "Pharmacie des R\u00e9sidences, Rabat, Morocco", "city": "Rabat", "geocoded": false, "latitude": 0.0, "longitude": 0.0}, {"name": "Pharmacie Al Mountazah", "phone": "0537790016", "address": "Pharmacie Al Mountazah, Rabat, Morocco", "city": "Rabat", "geocoded": false, "latitude": 0.0, "longitude": 0.0}, {"name": "Pharmacie ElHanae", "phone": "0537761695", "address": "Pharmacie ElHanae, Rabat, Morocco", "city": "Rabat", "geocoded": false, "latitude": 0.0, "longitude": 0.0}, {"name": "Pharmacie Bon Secours", "phone": "0537722363", "address": "Pharmacie Bon Secours, Rabat, Morocco", "city": "Rabat", "geocoded": false, "latitude": 0.0, "longitude": 0.0}, {"name": "Pharmacie du Th\u00e9\u00e2tre", "phone": "0537702794", "address": "Pharmacie du Th\u00e9\u00e2tre, Rabat, Morocco", "city": "Rabat", "geocoded": false, "latitude": 0.0, "longitude": 0.0}, {"name": "Pharmacie les peupliers", "phone": "0537711158", "address": "Pharmacie les peupliers, Rabat, Morocco", "city": "Rabat", "geocoded": false, "latitude": 0.0, "longitude": 0.0}, {"name": "Pharmacie Hyper Label'vie", "phone": "0537755555", "address": "Pharmacie Hyper Label'vie, Rabat, Morocco", "city": "Rabat", "geocoded": false, "latitude": 0.0, "longitude": 0.0}, {"name": "Pharmacie Kounouz", "phone": "0537711516", "address": "Pharmacie Kounouz, Rabat, Morocco", "city": "Rabat", "geocoded": false, "latitude": 0.0, "longitude": 0.0}, {"name": "Pharmacie AlBahja", "phone": "0537797137", "address": "Pharmacie AlBahja, Rabat, Morocco", "city": "Rabat", "geocoded": false, "latitude": 0.0, "longitude": 0.0}, {"name": "Pharmacie Bekkari", "phone": "0537794184", "address": "Pharmacie Bekkari, Rabat, Morocco", "city": "Rabat", "geocoded": false, "latitude": 0.0, "longitude": 0.0}, {"name": "Pharmacie de l'\u00e9toile", "phone": "0537671414", "address": "Pharmacie de l'\u00e9toile, Rabat, Morocco", "city": "Rabat", "geocoded": false, "latitude": 0.0, "longitude": 0.0}, {"name": "Pharmacie Abou Bakr Assedik", "phone": "0537651874", "address": "Pharmacie Abou Bakr Assedik, Rabat, Morocco", "city": "Rabat", "geocoded": false, "latitude": 0.0, "longitude": 0.0}, {"name": "Pharmacie du 16 novembre", "phone": "0537670024", "address": "Pharmacie du 16 novembre, Rabat, Morocco", "city": "Rabat", "geocoded": false, "latitude": 0.0, "longitude": 0.0}, {"name": "Pharmacie Kasry", "phone": "0537799690", "address": "Pharmacie Kasry, Rabat, Morocco", "city": "Rabat", "geocoded": false, "latitude": 0.0, "longitude": 0.0}, {"name": "Pharmacie Chbanat", "phone": "0537290998", "address": "Pharmacie Chbanat, Rabat, Morocco", "city": "Rabat", "geocoded": false, "latitude": 0.0, "longitude": 0.0}, {"name": "Pharmacie les Almohades", "phone": "0537206888", "address": "Pharmacie les Almohades, Rabat, Morocco", "city": "Rabat", "geocoded": false, "latitude": 0.0, "longitude": 0.0}, {"name": "Conseil R\u00e9gional des Pharmaciens d'Officine du Nord (C.r.p.o.n)", "phone": "0537710062", "address": "Conseil R\u00e9gional des Pharmaciens d'Officine du Nord (C.r.p.o.n), Rabat, Morocco", "city": "Rabat", "geocoded": false, "latitude": 0.0, "longitude": 0.0}, {"name": "Pharmacie Chenier", "phone": "0537201539", "address": "Pharmacie Chenier, Rabat, Morocco", "city": "Rabat", "geocoded": false, "latitude": 0.0, "longitude": 0.0}, {"name": "Pharmacie Napoli", "phone": "0537720859", "address": "Pharmacie Napoli, Rabat, Morocco", "city": "Rabat", "geocoded": false, "latitude": 0.0, "longitude": 0.0}, {"name": "Pharmacie Alkhawarizmi", "phone": "0537791179", "address": "Pharmacie Alkhawarizmi, Rabat, Morocco", "city": "Rabat", "geocoded": false, "latitude": 0.0, "longitude": 0.0}, {"name": "Pharmacie Marassa", "phone": "0537201963", "address": "Pharmacie Marassa, Rabat, Morocco", "city": "Rabat", "geocoded": false, "latitude": 0.0, "longitude": 0.0}, {"name": "Pharmacie AlBoustane", "phone": "0537799293", "address": "Pharmacie AlBoustane, Rabat, Morocco", "city": "Rabat", "geocoded": false, "latitude": 0.0, "longitude": 0.0}, {"name": "Pharmacie Elirfane", "phone": "0537686317", "address": "Pharmacie Elirfane, Rabat, Morocco", "city": "Rabat", "geocoded": false, "latitude": 0.0, "longitude": 0.0}, {"name": "Pharmacie Id\u00e9ale", "phone": "0537795934", "address": "Pharmacie Id\u00e9ale, Rabat, Morocco", "city": "Rabat", "geocoded": false, "latitude": 0.0, "longitude": 0.0}, {"name": "Pharmacie Dar Essalam", "phone": "0537754111", "address": "Pharmacie Dar Essalam, Rabat, Morocco", "city": "Rabat", "geocoded": false, "latitude": 0.0, "longitude": 0.0}, {"name": "Pharmacie AlManal", "phone": "0537655554", "address": "Pharmacie AlManal, Rabat, Morocco", "city": "Rabat", "geocoded": false, "latitude": 0.0, "longitude": 0.0}, {"name": "Pharmacie Rabi", "phone": "0537656692", "address": "Pharmacie Rabi, Rabat, Morocco", "city": "Rabat", "geocoded": false, "latitude": 0.0, "longitude": 0.0}, {"name": "Pharmacie Assabah", "phone": "0537790375", "address": "Pharmacie Assabah, Rabat, Morocco", "city": "Rabat", "geocoded": false, "latitude": 0.0, "longitude": 0.0}, {"name": "Pharmacie Elwahda", "phone": "0537754991", "address": "Pharmacie Elwahda, Rabat, Morocco", "city": "Rabat", "geocoded": false, "latitude": 0.0, "longitude": 0.0}, {"name": "Pharmacie du Bou-Regreg", "phone": "0537653588", "address": "Pharmacie du Bou-Regreg, Rabat, Morocco", "city": "Rabat", "geocoded": false, "latitude": 0.0, "longitude": 0.0}, {"name": "Pharmacie Errahma", "phone": "0537652930", "address": "Pharmacie Errahma, Rabat, Morocco", "city": "Rabat", "geocoded": false, "latitude": 0.0, "longitude": 0.0}, {"name": "Pharmacie Dar Achabab", "phone": "0537792254", "address": "Pharmacie Dar Achabab, Rabat, Morocco", "city": "Rabat", "geocoded": false, "latitude": 0.0, "longitude": 0.0}, {"name": "Pharmacie AlAdarissa", "phone": "0537755186", "address": "Pharmacie AlAdarissa, Rabat, Morocco", "city": "Rabat", "geocoded": false, "latitude": 0.0, "longitude": 0.0}, {"name": "Pharmacie Al Andalous", "phone": "0537750175", "address": "Pharmacie Al Andalous, Rabat, Morocco", "city": "Rabat", "geocoded": false, "latitude": 0.0, "longitude": 0.0}, {"name": "Pharmacie Loubaris", "phone": "0537754713", "address": "Pharmacie Loubaris, Rabat, Morocco", "city": "Rabat", "geocoded": false, "latitude": 0.0, "longitude": 0.0}, {"name": "Pharmacie Elwafaa", "phone": "0537631982", "address": "Pharmacie Elwafaa, Rabat, Morocco", "city": "Rabat", "geocoded": false, "latitude": 0.0, "longitude": 0.0}, {"name": "Pharmacie de la m\u00e9dina", "phone": "0537727062", "address": "Pharmacie de la m\u00e9dina, Rabat, Morocco", "city": "Rabat", "geocoded": false, "latitude": 0.0, "longitude": 0.0}, {"name": "Pharmacie Iswane", "phone": "0537670777", "address": "Pharmacie Iswane, Rabat, Morocco", "city": "Rabat", "geocoded": false, "latitude": 0.0, "longitude": 0.0}, {"name": "Pharmacie Sofia", "phone": "0537282928", "address": "Pharmacie Sofia, Rabat, Morocco", "city": "Rabat", "geocoded": false, "latitude": 0.0, "longitude": 0.0}, {"name": "Pharmacie Alem", "phone": "0537796759", "address": "Pharmacie Alem, Rabat, Morocco", "city": "Rabat", "geocoded": false, "latitude": 0.0, "longitude": 0.0}, {"name": "Pharmacie ElAtlas", "phone": "0537692359", "address": "Pharmacie ElAtlas, Rabat, Morocco", "city": "Rabat", "geocoded": false, "latitude": 0.0, "longitude": 0.0}, {"name": "Pharmacie du Golf", "phone": "0537755257", "address": "Pharmacie du Golf, Rabat, Morocco", "city": "Rabat", "geocoded": false, "latitude": 0.0, "longitude": 0.0}, {"name": "Pharmacie AlKhair", "phone": "0537695243", "address": "Pharmacie AlKhair, Rabat, Morocco", "city": "Rabat", "geocoded": false, "latitude": 0.0, "longitude": 0.0}, {"name": "Pharmacie AlBouchra", "phone": "0537794344", "address": "Pharmacie AlBouchra, Rabat, Morocco", "city": "Rabat", "geocoded": false, "latitude": 0.0, "longitude": 0.0}, {"name": "Pharmacie Les Iris", "phone": "0537776290", "address": "Pharmacie Les Iris, Rabat, Morocco", "city": "Rabat", "geocoded": false, "latitude": 0.0, "longitude": 0.0}, {"name": "Pharmacie des Nations Unies", "phone": "0537670719", "address": "Pharmacie des Nations Unies, Rabat, Morocco", "city": "Rabat", "geocoded": false, "latitude": 0.0, "longitude": 0.0}, {"name": "Pharmacie de Rabat", "phone": "0537707468", "address": "Pharmacie de Rabat, Rabat, Morocco", "city": "Rabat", "geocoded": false, "latitude": 0.0, "longitude": 0.0}, {"name": "Pharmacie Bin ElOuidane", "phone": "0537772478", "address": "Pharmacie Bin ElOuidane, Rabat, Morocco", "city": "Rabat", "geocoded": false, "latitude": 0.0, "longitude": 0.0}, {"name": "Pharmacie Oqba", "phone": "0537772699", "address": "Pharmacie Oqba, Rabat, Morocco", "city": "Rabat", "geocoded": false, "latitude": 0.0, "longitude": 0.0}, {"name": "Facult\u00e9 de M\u00e9decine et de Pharmacie de Rabat", "phone": "0537772981", "address": "Facult\u00e9 de M\u00e9decine et de Pharmacie de Rabat, Rabat, Morocco", "city": "Rabat", "geocoded": false, "latitude": 0.0, "longitude": 0.0}, {"name": "Pharmacie Boukroune", "phone": "0537722468", "address": "Pharmacie Boukroune, Rabat, Morocco", "city": "Rabat", "geocoded": false, "latitude": 0.0, "longitude": 0.0}, {"name": "Pharmacie le Dauphin", "phone": "0537735818", "address": "Pharmacie le Dauphin, Rabat, Morocco", "city": "Rabat", "geocoded": false, "latitude": 0.0, "longitude": 0.0}, {"name": "Pharmacie Raja Fillah", "phone": "0537299226", "address": "Pharmacie Raja Fillah, Rabat, Morocco", "city": "Rabat", "geocoded": false, "latitude": 0.0, "longitude": 0.0}, {"name": "Pharmacie Essalam", "phone": "0537691455", "address": "Pharmacie Essalam, Rabat, Morocco", "city": "Rabat", "geocoded": false, "latitude": 0.0, "longitude": 0.0}, {"name": "Pharmacie Almaghreb Alarabi", "phone": "0537732637", "address": "Pharmacie Almaghreb Alarabi, Rabat, Morocco", "city": "Rabat", "geocoded": false, "latitude": 0.0, "longitude": 0.0}, {"name": "Pharmacie Moulay Youssef", "phone": "0537691937", "address": "Pharmacie Moulay Youssef, Rabat, Morocco", "city": "Rabat", "geocoded": false, "latitude": 0.0, "longitude": 0.0}, {"name": "Pharmacie AlMajd", "phone": "0537799696", "address": "Pharmacie AlMajd, Rabat, Morocco", "city": "Rabat", "geocoded": false, "latitude": 0.0, "longitude": 0.0}, {"name": "Pharmacie Abi Hourayra", "phone": "0537795072", "address": "Pharmacie Abi Hourayra, Rabat, Morocco", "city": "Rabat", "geocoded": false, "latitude": 0.0, "longitude": 0.0}, {"name": "Institut de Pharmacie V\u00e9t\u00e9rinaire (I.p.v.)", "phone": "0537795030", "address": "Institut de Pharmacie V\u00e9t\u00e9rinaire (I.p.v.), Rabat, Morocco", "city": "Rabat", "geocoded": false, "latitude": 0.0, "longitude": 0.0}, {"name": "Pharmacie du Haut Souissi", "phone": "0537651963", "address": "Pharmacie du Haut Souissi, Rabat, Morocco", "city": "Rabat", "geocoded": false, "latitude": 0.0, "longitude": 0.0}, {"name": "Pharmacie Prestigia", "phone": "0537571584", "address": "Pharmacie Prestigia, Rabat, Morocco", "city": "Rabat", "geocoded": false, "latitude": 0.0, "longitude": 0.0}, {"name": "Pharmacie Mecca", "phone": "0537565875", "address": "Pharmacie Mecca, Rabat, Morocco", "city": "Rabat", "geocoded": false, "latitude": 0.0, "longitude": 0.0}, {"name": "Pharmacie Zaraphyt", "phone": "0537756569", "address": "Pharmacie Zaraphyt, Rabat, Morocco", "city": "Rabat", "geocoded": false, "latitude": 0.0, "longitude": 0.0}, {"name": "Pharmacie La Vitalit\u00e9", "phone": "0537711684", "address": "Pharmacie La Vitalit\u00e9, Rabat, Morocco", "city": "Rabat", "geocoded": false, "latitude": 0.0, "longitude": 0.0}, {"name": "Pharmacie Al Mamoune", "phone": "0537560315", "address": "Pharmacie Al Mamoune, Rabat, Morocco", "city": "Rabat", "geocoded": false, "latitude": 0.0, "longitude": 0.0}, {"name": "Pharmacie Bayt Al Maarifa", "phone": "0537770738", "address": "Pharmacie Bayt Al Maarifa, Rabat, Morocco", "city": "Rabat", "geocoded": false, "latitude": 0.0, "longitude": 0.0}, {"name": "Pharmacie Attannoub", "phone": "0537713885", "address": "Pharmacie Attannoub, Rabat, Morocco", "city": "Rabat", "geocoded": false, "latitude": 0.0, "longitude": 0.0}, {"name": "Pharmacie Borj", "phone": "0537566783", "address": "Pharmacie Borj, Rabat, Morocco", "city": "Rabat", "geocoded": false, "latitude": 0.0, "longitude": 0.0}, {"name": "Pharmacie Centre de Transfusion Sanguine", "phone": "0537692469", "address": "Pharmacie Centre de Transfusion Sanguine, Rabat, Morocco", "city": "Rabat", "geocoded": false, "latitude": 0.0, "longitude": 0.0}, {"name": "Pharmacie Ryad Al Otor", "phone": "0537563281", "address": "Pharmacie Ryad Al Otor, Rabat, Morocco", "city": "Rabat", "geocoded": false, "latitude": 0.0, "longitude": 0.0}, {"name": "Pharmacie Amrou Alem", "phone": "0537755313", "address": "Pharmacie Amrou Alem, Rabat, Morocco", "city": "Rabat", "geocoded": false, "latitude": 0.0, "longitude": 0.0}, {"name": "Loulidi Para-Pharmacie Cosmetic s.a.r.l. (L.p.c. s.a.r.l.)", "phone": "0537695042", "address": "Loulidi Para-Pharmacie Cosmetic s.a.r.l. (L.p.c. s.a.r.l.), Rabat, Morocco", "city": "Rabat", "geocoded": false, "latitude": 0.0, "longitude": 0.0}, {"name": "Pharmacie Ghayt", "phone": "0537571572", "address": "Pharmacie Ghayt, Rabat, Morocco", "city": "Rabat", "geocoded": false, "latitude": 0.0, "longitude": 0.0}, {"name": "Pharmacie descartes", "phone": "0537671090", "address": "Pharmacie descartes, Rabat, Morocco", "city": "Rabat", "geocoded": false, "latitude": 0.0, "longitude": 0.0}, {"name": "Pharmacie Ben Omar", "phone": "0537769930", "address": "Pharmacie Ben Omar, Rabat, Morocco", "city": "Rabat", "geocoded": false, "latitude": 0.0, "longitude": 0.0}, {"name": "Pharmacie Gare Routi\u00e8re", "phone": "0666297137", "address": "Pharmacie Gare Routi\u00e8re, Rabat, Morocco", "city": "Rabat", "geocoded": false, "latitude": 0.0, "longitude": 0.0}, {"name": "Pharmacie Meskellil", "phone": "0537714624", "address": "Pharmacie Meskellil, Rabat, Morocco", "city": "Rabat", "geocoded": false, "latitude": 0.0, "longitude": 0.0}, {"name": "Pharmacie Tamouh", "phone": "0537659666", "address": "Pharmacie Tamouh, Rabat, Morocco", "city": "Rabat", "geocoded": false, "latitude": 0.0, "longitude": 0.0}, {"name": "Pharmacie Narjis", "phone": "0537560590", "address": "Pharmacie Narjis, Rabat, Morocco", "city": "Rabat", "geocoded": false, "latitude": 0.0, "longitude": 0.0}, {"name": "Pharmacie des Cit\u00e9s", "phone": "0537560335", "address": "Pharmacie des Cit\u00e9s, Rabat, Morocco", "city": "Rabat", "geocoded": false, "latitude": 0.0, "longitude": 0.0}, {"name": "Pharmacie Talha", "phone": "0537657634", "address": "Pharmacie Talha, Rabat, Morocco", "city": "Rabat", "geocoded": false, "latitude": 0.0, "longitude": 0.0}, {"name": "La G\u00e9n\u00e9rale De La Parapharmacie", "phone": "0537707010", "address": "La G\u00e9n\u00e9rale De La Parapharmacie, Rabat, Morocco", "city": "Rabat", "geocoded": false, "latitude": 0.0, "longitude": 0.0}, {"name": "Pharmacie la Corniche", "phone": "0537729744", "address": "Pharmacie la Corniche, Rabat, Morocco", "city": "Rabat", "geocoded": false, "latitude": 0.0, "longitude": 0.0}, {"name": "Pharmacie Anzi", "phone": "0537691313", "address": "Pharmacie Anzi, Rabat, Morocco", "city": "Rabat", "geocoded": false, "latitude": 0.0, "longitude": 0.0}, {"name": "Pharmacie Warda", "phone": "0537659977", "address": "Pharmacie Warda, Rabat, Morocco", "city": "Rabat", "geocoded": false, "latitude": 0.0, "longitude": 0.0}, {"name": "Pharmacie Amyris", "phone": "0537712115", "address": "Pharmacie Amyris, Rabat, Morocco", "city": "Rabat", "geocoded": false, "latitude": 0.0, "longitude": 0.0}, {"name": "Pharmacie des Ecoles", "phone": "0537565087", "address": "Pharmacie des Ecoles, Rabat, Morocco", "city": "Rabat", "geocoded": false, "latitude": 0.0, "longitude": 0.0}, {"name": "Pharmacie Mosqu\u00e9e O.l.m", "phone": "0537638119", "address": "Pharmacie Mosqu\u00e9e O.l.m, Rabat, Morocco", "city": "Rabat", "geocoded": false, "latitude": 0.0, "longitude": 0.0}, {"name": "Pharmacie Bab Marrakech", "phone": "0537779500", "address": "Pharmacie Bab Marrakech, Rabat, Morocco", "city": "Rabat", "geocoded": false, "latitude": 0.0, "longitude": 0.0}, {"name": "Pharmacie March\u00e9 de Gros", "phone": "0537231177", "address": "Pharmacie March\u00e9 de Gros, Rabat, Morocco", "city": "Rabat", "geocoded": false, "latitude": 0.0, "longitude": 0.0}, {"name": "Pharmacie Rim", "phone": "0537561813", "address": "Pharmacie Rim, Rabat, Morocco", "city": "Rabat", "geocoded": false, "latitude": 0.0, "longitude": 0.0}, {"name": "Pharmacie Erraha", "phone": "0537561393", "address": "Pharmacie Erraha, Rabat, Morocco", "city": "Rabat", "geocoded": false, "latitude": 0.0, "longitude": 0.0}, {"name": "Pharmacie Hay Echabab", "phone": "0537692902", "address": "Pharmacie Hay Echabab, Rabat, Morocco", "city": "Rabat", "geocoded": false, "latitude": 0.0, "longitude": 0.0}, {"name": "Pharmacie Annouzha", "phone": "0537636684", "address": "Pharmacie Annouzha, Rabat, Morocco", "city": "Rabat", "geocoded": false, "latitude": 0.0, "longitude": 0.0}, {"name": "L'Essentiel de La Para Pharmacie", "phone": "0537699981", "address": "L'Essentiel de La Para Pharmacie, Rabat, Morocco", "city": "Rabat", "geocoded": false, "latitude": 0.0, "longitude": 0.0}, {"name": "Chambre Syndicale des Pharmaciens d'Officine de la Wilaya de Rabat-Sal\u00e9 et des Provinces Limitrophos (C.s.p.r.s)", "phone": "0537715193", "address": "Chambre Syndicale des Pharmaciens d'Officine de la Wilaya de Rabat-Sal\u00e9 et des Provinces Limitrophos (C.s.p.r.s), Rabat, Morocco", "city": "Rabat", "geocoded": false, "latitude": 0.0, "longitude": 0.0}, {"name": "Pharmacie Ar-rahman", "phone": "0537294713", "address": "Pharmacie Ar-rahman, Rabat, Morocco", "city": "Rabat", "geocoded": false, "latitude": 0.0, "longitude": 0.0}, {"name": "Pharmacie Choukro Allah", "phone": "0537290543", "address": "Pharmacie Choukro Allah, Rabat, Morocco", "city": "Rabat", "geocoded": false, "latitude": 0.0, "longitude": 0.0}, {"name": "Pharmacie la Fidelit\u00e9", "phone": "0537710815", "address": "Pharmacie la Fidelit\u00e9, Rabat, Morocco", "city": "Rabat", "geocoded": false, "latitude": 0.0, "longitude": 0.0}, {"name": "Pharmacie les Minist\u00e8res d'Agdal", "phone": "0537682562", "address": "Pharmacie les Minist\u00e8res d'Agdal, Rabat, Morocco", "city": "Rabat", "geocoded": false, "latitude": 0.0, "longitude": 0.0}, {"name": "Pharmacie Benyahya", "phone": "0537693900", "address": "Pharmacie Benyahya, Rabat, Morocco", "city": "Rabat", "geocoded": false, "latitude": 0.0, "longitude": 0.0}, {"name": "Pharmacie Aloum", "phone": "0537291245", "address": "Pharmacie Aloum, Rabat, Morocco", "city": "Rabat", "geocoded": false, "latitude": 0.0, "longitude": 0.0}, {"name": "Pharmacie Moulay Ismail", "phone": "0537203781", "address": "Pharmacie Moulay Ismail, Rabat, Morocco", "city": "Rabat", "geocoded": false, "latitude": 0.0, "longitude": 0.0}, {"name": "Pharmacie Chifae", "phone": "0537795344", "address": "Pharmacie Chifae, Rabat, Morocco", "city": "Rabat", "geocoded": false, "latitude": 0.0, "longitude": 0.0}, {"name": "Pharmacie Sayarh", "phone": "0537292876", "address": "Pharmacie Sayarh, Rabat, Morocco", "city": "Rabat", "geocoded": false, "latitude": 0.0, "longitude": 0.0}, {"name": "Pharmacie AlMarwa", "phone": "0537563945", "address": "Pharmacie AlMarwa, Rabat, Morocco", "city": "Rabat", "geocoded": false, "latitude": 0.0, "longitude": 0.0}, {"name": "Pharmacie de la Muraille", "phone": "0537708877", "address": "Pharmacie de la Muraille, Rabat, Morocco", "city": "Rabat", "geocoded": false, "latitude": 0.0, "longitude": 0.0}, {"name": "Pharmacie Riad Assalam", "phone": "0537563582", "address": "Pharmacie Riad Assalam, Rabat, Morocco", "city": "Rabat", "geocoded": false, "latitude": 0.0, "longitude": 0.0}, {"name": "Pharmacie Mouradallah", "phone": "0537565294", "address": "Pharmacie Mouradallah, Rabat, Morocco", "city": "Rabat", "geocoded": false, "latitude": 0.0, "longitude": 0.0}, {"name": "Pharmacie Galien", "phone": "0537759747", "address": "Pharmacie Galien, Rabat, Morocco", "city": "Rabat", "geocoded": false, "latitude": 0.0, "longitude": 0.0}, {"name": "Pharmacie C.H.U.", "phone": "0537672532", "address": "Pharmacie C.H.U., Rabat, Morocco", "city": "Rabat", "geocoded": false, "latitude": 0.0, "longitude": 0.0}, {"name": "Pharmacie l'H\u00f4pital Militaire", "phone": "0537565030", "address": "Pharmacie l'H\u00f4pital Militaire, Rabat, Morocco", "city": "Rabat", "geocoded": false, "latitude": 0.0, "longitude": 0.0}, {"name": "Pharmacie R\u00e9sidence la Corniche", "phone": "0537294770", "address": "Pharmacie R\u00e9sidence la Corniche, Rabat, Morocco", "city": "Rabat", "geocoded": false, "latitude": 0.0, "longitude": 0.0}, {"name": "Pharmacie le Claridge", "phone": "0537654055", "address": "Pharmacie le Claridge, Rabat, Morocco", "city": "Rabat", "geocoded": false, "latitude": 0.0, "longitude": 0.0}, {"name": "Pharmacie Rania", "phone": "0537564688", "address": "Pharmacie Rania, Rabat, Morocco", "city": "Rabat", "geocoded": false, "latitude": 0.0, "longitude": 0.0}, {"name": "Pharmacie des Cliniques", "phone": "0537203364", "address": "Pharmacie des Cliniques, Rabat, Morocco", "city": "Rabat", "geocoded": false, "latitude": 0.0, "longitude": 0.0}, {"name": "Pharmacie City Center Ryad", "phone": "0537563277", "address": "Pharmacie City Center Ryad, Rabat, Morocco", "city": "Rabat", "geocoded": false, "latitude": 0.0, "longitude": 0.0}, {"name": "Pharmacie Jnane Ennahda", "phone": "0537756101", "address": "Pharmacie Jnane Ennahda, Rabat, Morocco", "city": "Rabat", "geocoded": false, "latitude": 0.0, "longitude": 0.0}, {"name": "Pharmacie AlMountalak", "phone": "0537294480", "address": "Pharmacie AlMountalak, Rabat, Morocco", "city": "Rabat", "geocoded": false, "latitude": 0.0, "longitude": 0.0}, {"name": "Pharmacie La Reussite", "phone": "0537758109", "address": "Pharmacie La Reussite, Rabat, Morocco", "city": "Rabat", "geocoded": false, "latitude": 0.0, "longitude": 0.0}, {"name": "Pharmacie Terminus AlFath", "phone": "0537792635", "address": "Pharmacie Terminus AlFath, Rabat, Morocco", "city": "Rabat", "geocoded": false, "latitude": 0.0, "longitude": 0.0}, {"name": "Pharmacie Karioun", "phone": "0537231383", "address": "Pharmacie Karioun, Rabat, Morocco", "city": "Rabat", "geocoded": false, "latitude": 0.0, "longitude": 0.0}, {"name": "Pharmacie Sahbi", "phone": "0537295013", "address": "Pharmacie Sahbi, Rabat, Morocco", "city": "Rabat", "geocoded": false, "latitude": 0.0, "longitude": 0.0}, {"name": "Pharmacie Misk", "phone": "0537712520", "address": "Pharmacie Misk, Rabat, Morocco", "city": "Rabat", "geocoded": false, "latitude": 0.0, "longitude": 0.0}, {"name": "Pharmacie Nassim Ryad", "phone": "0537564691", "address": "Pharmacie Nassim Ryad, Rabat, Morocco", "city": "Rabat", "geocoded": false, "latitude": 0.0, "longitude": 0.0}, {"name": "Pharmacie AlAnbar", "phone": "0537292770", "address": "Pharmacie AlAnbar, Rabat, Morocco", "city": "Rabat", "geocoded": false, "latitude": 0.0, "longitude": 0.0}, {"name": "Pharmacie de la mosqu\u00e9e hay Ryad", "phone": "0537715085", "address": "Pharmacie de la mosqu\u00e9e hay Ryad, Rabat, Morocco", "city": "Rabat", "geocoded": false, "latitude": 0.0, "longitude": 0.0}, {"name": "Pharmacie Dahab", "phone": "0537697917", "address": "Pharmacie Dahab, Rabat, Morocco", "city": "Rabat", "geocoded": false, "latitude": 0.0, "longitude": 0.0}, {"name": "Pharmacie Av. Goundafa", "phone": "0537752722", "address": "Pharmacie Av. Goundafa, Rabat, Morocco", "city": "Rabat", "geocoded": false, "latitude": 0.0, "longitude": 0.0}, {"name": "Pharmacie Mimosas", "phone": "0537292000", "address": "Pharmacie Mimosas, Rabat, Morocco", "city": "Rabat", "geocoded": false, "latitude": 0.0, "longitude": 0.0}, {"name": "Pharmacie Abdelkrim ElKhattabi", "phone": "0537203881", "address": "Pharmacie Abdelkrim ElKhattabi, Rabat, Morocco", "city": "Rabat", "geocoded": false, "latitude": 0.0, "longitude": 0.0}, {"name": "Pharmacie du Mail Central", "phone": "0537716782", "address": "Pharmacie du Mail Central, Rabat, Morocco", "city": "Rabat", "geocoded": false, "latitude": 0.0, "longitude": 0.0}, {"name": "Pharmacie Super Sol", "phone": "0537650674", "address": "Pharmacie Super Sol, Rabat, Morocco", "city": "Rabat", "geocoded": false, "latitude": 0.0, "longitude": 0.0}, {"name": "Pharmacie Kawtar Riad", "phone": "0537563638", "address": "Pharmacie Kawtar Riad, Rabat, Morocco", "city": "Rabat", "geocoded": false, "latitude": 0.0, "longitude": 0.0}, {"name": "Pharmacie Nahim", "phone": "0537691693", "address": "Pharmacie Nahim, Rabat, Morocco", "city": "Rabat", "geocoded": false, "latitude": 0.0, "longitude": 0.0}, {"name": "Pharmacie AlMinbat", "phone": "0537751607", "address": "Pharmacie AlMinbat, Rabat, Morocco", "city": "Rabat", "geocoded": false, "latitude": 0.0, "longitude": 0.0}, {"name": "Pharmacie Tansift", "phone": "0537681676", "address": "Pharmacie Tansift, Rabat, Morocco", "city": "Rabat", "geocoded": false, "latitude": 0.0, "longitude": 0.0}]